[
    {
        "store_name": "SIRAH 1720 LLC",
        "street_address": "535 MARCY AVE",
        "borough": "Brooklyn",
        "zip_code": "11206",
        "year_awarded": "2020",
        "program_wave": "8",
        "latitude": "40.696961",
        "longitude": "-73.949512",
        "community_board": "3",
        "council_district": "36",
        "census_tract": "257",
        "bin": "3338591",
        "bbl": "3017390001",
        "nta": "Bedford"
    },
    {
        "store_name": "FIRST STOP GROCERY INC",
        "street_address": "643 MARCY AVE",
        "borough": "Brooklyn",
        "zip_code": "11206",
        "year_awarded": "2020",
        "program_wave": "8",
        "latitude": "40.692552",
        "longitude": "-73.948632",
        "community_board": "3",
        "council_district": "36",
        "census_tract": "261",
        "bin": "3049316",
        "bbl": "3017710001",
        "nta": "Bedford"
    },
    {
        "store_name": "AANDE DIRECT LLC",
        "street_address": "40 LEWIS AVE",
        "borough": "Brooklyn",
        "zip_code": "11206",
        "year_awarded": "2020",
        "program_wave": "8",
        "latitude": "40.696576",
        "longitude": "-73.937777",
        "community_board": "3",
        "council_district": "36",
        "census_tract": "283",
        "bin": "3042883",
        "bbl": "3015850035",
        "nta": "Stuyvesant Heights"
    },
    {
        "store_name": "CENTRAL ORGANIC",
        "street_address": "67 CENTRAL AVE",
        "borough": "Brooklyn",
        "zip_code": "11206",
        "year_awarded": "2020",
        "program_wave": "8",
        "latitude": "40.701096",
        "longitude": "-73.930445",
        "community_board": "4",
        "council_district": "34",
        "census_tract": "425",
        "bin": "3072058",
        "bbl": "3031640008",
        "nta": "Bushwick South"
    },
    {
        "store_name": "194 THROOP FOOD CORP",
        "street_address": "777 PARK AVE",
        "borough": "Brooklyn",
        "zip_code": "11206",
        "year_awarded": "2020",
        "program_wave": "8",
        "latitude": "40.698191",
        "longitude": "-73.944311",
        "community_board": "3",
        "council_district": "36",
        "census_tract": "257",
        "bin": "3335580",
        "bbl": "3017320026",
        "nta": "Bedford"
    },
    {
        "store_name": "BROADWAY ORGANIC DELI INC",
        "street_address": "799 BROADWAY",
        "borough": "Brooklyn",
        "zip_code": "11206",
        "year_awarded": "2020",
        "program_wave": "8",
        "latitude": "40.699745",
        "longitude": "-73.940176",
        "community_board": "4",
        "council_district": "34",
        "census_tract": "389",
        "bin": "3071692",
        "bbl": "3031320007",
        "nta": "Bushwick South"
    },
    {
        "store_name": "MLD 91 FOOD CORP",
        "street_address": "91 HUMBOLDT ST",
        "borough": "Brooklyn",
        "zip_code": "11206",
        "year_awarded": "2020",
        "program_wave": "8",
        "latitude": "40.704472",
        "longitude": "-73.941009",
        "community_board": "1",
        "council_district": "34",
        "census_tract": "491",
        "bin": "3325958",
        "bbl": "3030970018",
        "nta": "East Williamsburg"
    },
    {
        "store_name": "GRAHAM STOP ONE DELI INC",
        "street_address": "146 GRAHAM AVE",
        "borough": "Brooklyn",
        "zip_code": "11206",
        "year_awarded": "2020",
        "program_wave": "8",
        "latitude": "40.70643",
        "longitude": "-73.943045",
        "community_board": "1",
        "council_district": "34",
        "census_tract": "493",
        "bin": "3338421",
        "bbl": "3030710007",
        "nta": "Bushwick South"
    },
    {
        "store_name": "BOGOPA MANHATTAN INC",
        "street_address": "21 MANHATTAN AVE",
        "borough": "Brooklyn",
        "zip_code": "11206",
        "year_awarded": "2020",
        "program_wave": "8",
        "latitude": "40.702939",
        "longitude": "-73.944235",
        "community_board": "1",
        "council_district": "34",
        "census_tract": "491",
        "bin": "3000000",
        "bbl": "3031040001",
        "nta": "East Williamsburg"
    },
    {
        "store_name": "LEE HEYWARD GROCERY INC",
        "street_address": "198 LEE AVE",
        "borough": "Brooklyn",
        "zip_code": "11206",
        "year_awarded": "2020",
        "program_wave": "8",
        "latitude": "40.701855",
        "longitude": "-73.955636",
        "community_board": "1",
        "council_district": "33",
        "census_tract": "531",
        "bin": "3061119",
        "bbl": "3022310035",
        "nta": "Bedford"
    },
    {
        "store_name": "164 TOMPKIN DELI",
        "street_address": "164 TOMPKINS ST",
        "borough": "Brooklyn",
        "zip_code": "11206",
        "year_awarded": "2020",
        "program_wave": "8"
    },
    {
        "store_name": "J A TOMPKINS FOOD CORP",
        "street_address": "920 MYRTLE AVE",
        "borough": "Brooklyn",
        "zip_code": "11206",
        "year_awarded": "2020",
        "program_wave": "8",
        "latitude": "40.695814",
        "longitude": "-73.945344",
        "community_board": "3",
        "council_district": "36",
        "census_tract": "25901",
        "bin": "3048667",
        "bbl": "3017560023",
        "nta": "Bedford"
    },
    {
        "store_name": "JRM DELI GROCERY CORP",
        "street_address": "98 MARCUS GARVEY BLVD",
        "borough": "Brooklyn",
        "zip_code": "11206",
        "year_awarded": "2020",
        "program_wave": "8",
        "latitude": "40.695505",
        "longitude": "-73.940544",
        "community_board": "3",
        "council_district": "36",
        "census_tract": "283",
        "bin": "3048912",
        "bbl": "3017610035",
        "nta": "Stuyvesant Heights"
    },
    {
        "store_name": "AFS MARKET INC",
        "street_address": "1102 MYRTLE AVE",
        "borough": "Brooklyn",
        "zip_code": "11206",
        "year_awarded": "2020",
        "program_wave": "8",
        "latitude": "40.696817",
        "longitude": "-73.936605",
        "community_board": "3",
        "council_district": "36",
        "census_tract": "287",
        "bin": "3042895",
        "bbl": "3015860014",
        "nta": "Stuyvesant Heights"
    },
    {
        "store_name": "GREEN CORNER OF NY LLC",
        "street_address": "801 FLUSHING AVE",
        "borough": "Brooklyn",
        "zip_code": "11206",
        "year_awarded": "2020",
        "program_wave": "8",
        "latitude": "40.701019",
        "longitude": "-73.940705",
        "community_board": "1",
        "council_district": "34",
        "census_tract": "491",
        "bin": "3071664",
        "bbl": "3031270027",
        "nta": "East Williamsburg"
    },
    {
        "store_name": "726 MEAT MARKET INC",
        "street_address": "726 BROADWAY",
        "borough": "Brooklyn",
        "zip_code": "11206",
        "year_awarded": "2020",
        "program_wave": "8",
        "latitude": "40.701171",
        "longitude": "-73.942667",
        "community_board": "1",
        "council_district": "33",
        "census_tract": "507",
        "bin": "3061510",
        "bbl": "3022760022",
        "nta": "Bedford"
    },
    {
        "store_name": "711 BROOKLYN DELI CORP",
        "street_address": "711 FLUSHING AVE",
        "borough": "Brooklyn",
        "zip_code": "11206",
        "year_awarded": "2020",
        "program_wave": "8",
        "latitude": "40.700485",
        "longitude": "-73.943959",
        "community_board": "1",
        "council_district": "33",
        "census_tract": "507",
        "bin": "3061500",
        "bbl": "3022767502",
        "nta": "Bedford"
    },
    {
        "store_name": "THE LUNCH BOX DELI CORP",
        "street_address": "204 BUSHWICK AVE",
        "borough": "Brooklyn",
        "zip_code": "11206",
        "year_awarded": "2020",
        "program_wave": "8",
        "latitude": "40.708767",
        "longitude": "-73.940031",
        "community_board": "1",
        "council_district": "34",
        "census_tract": "493",
        "bin": "3071014",
        "bbl": "3030450017",
        "nta": "Bushwick South"
    },
    {
        "store_name": "PAULA MARKET AND DELI CORP",
        "street_address": "276 HUMBOLDT ST",
        "borough": "Brooklyn",
        "zip_code": "11206",
        "year_awarded": "2020",
        "program_wave": "8",
        "latitude": "40.711173",
        "longitude": "-73.942114",
        "community_board": "1",
        "council_district": "34",
        "census_tract": "495",
        "bin": "3069626",
        "bbl": "3027900001",
        "nta": "East Williamsburg"
    },
    {
        "store_name": "SEM SEM DELI CORP",
        "street_address": "75 HUMBOLDT ST",
        "borough": "Brooklyn",
        "zip_code": "11206",
        "year_awarded": "2020",
        "program_wave": "8",
        "latitude": "40.704022",
        "longitude": "-73.940926",
        "community_board": "1",
        "council_district": "34",
        "census_tract": "491",
        "bin": "3071460",
        "bbl": "3030970024",
        "nta": "East Williamsburg"
    },
    {
        "store_name": "LORIMER DELI FOOD CORP",
        "street_address": "400 LORIMER ST",
        "borough": "Brooklyn",
        "zip_code": "11206",
        "year_awarded": "2020",
        "program_wave": "8",
        "latitude": "40.708821",
        "longitude": "-73.948497",
        "community_board": "1",
        "council_district": "34",
        "census_tract": "511",
        "bin": "3070864",
        "bbl": "3030320005",
        "nta": "East Williamsburg"
    },
    {
        "store_name": "ORANGE TREE ORGANIC MARKET CORP",
        "street_address": "121 GRAHAM AVE",
        "borough": "Brooklyn",
        "zip_code": "11206",
        "year_awarded": "2020",
        "program_wave": "8",
        "latitude": "40.705994",
        "longitude": "-73.942995",
        "community_board": "1",
        "council_district": "34",
        "census_tract": "505",
        "bin": "3071280",
        "bbl": "3030700026",
        "nta": "East Williamsburg"
    },
    {
        "store_name": "128 T EDGECOMBE DELI CORP",
        "street_address": "128 EDGECOMBE AVE",
        "borough": "New York",
        "zip_code": "10030",
        "year_awarded": "2020",
        "program_wave": "8",
        "latitude": "40.820961",
        "longitude": "-73.945071",
        "community_board": "10",
        "council_district": "9",
        "census_tract": "259",
        "bin": "1060736",
        "bbl": "1020430001",
        "nta": "Central Harlem North-Polo Grounds"
    },
    {
        "store_name": "135 FUTURE LANDM CORP",
        "street_address": "24 WEST 135TH ST",
        "borough": "New York",
        "zip_code": "10037",
        "year_awarded": "2020",
        "program_wave": "8",
        "latitude": "40.813209",
        "longitude": "-73.938756",
        "community_board": "10",
        "council_district": "9",
        "census_tract": "212",
        "bin": "1053894",
        "bbl": "1017300052",
        "nta": "Central Harlem North-Polo Grounds"
    },
    {
        "store_name": "135TH STREET DELI AND GROCERY CORP",
        "street_address": "266 WEST 135TH ST",
        "borough": "New York",
        "zip_code": "10030",
        "year_awarded": "2020",
        "program_wave": "8",
        "latitude": "40.816056",
        "longitude": "-73.945505",
        "community_board": "10",
        "council_district": "9",
        "census_tract": "228",
        "bin": "1058855",
        "bbl": "1019400060",
        "nta": "Central Harlem North-Polo Grounds"
    },
    {
        "store_name": "141 FINEST DELI CORP",
        "street_address": "332 WEST 141ST ST",
        "borough": "New York",
        "zip_code": "10030",
        "year_awarded": "2020",
        "program_wave": "8",
        "latitude": "40.820958",
        "longitude": "-73.945375",
        "community_board": "10",
        "council_district": "9",
        "census_tract": "22102",
        "bin": "1060914",
        "bbl": "1020480041",
        "nta": "Central Harlem North-Polo Grounds"
    },
    {
        "store_name": "2278 DELI AND GROCERY INC",
        "street_address": "2278 7TH AVE",
        "borough": "New York",
        "zip_code": "10030",
        "year_awarded": "2020",
        "program_wave": "8",
        "latitude": "40.814546",
        "longitude": "-73.944268",
        "community_board": "10",
        "council_district": "9",
        "census_tract": "226",
        "bin": "1058817",
        "bbl": "1019390036",
        "nta": "Central Harlem North-Polo Grounds"
    },
    {
        "store_name": "477 FOOD CORP",
        "street_address": "477 LENOX AVE",
        "borough": "New York",
        "zip_code": "10037",
        "year_awarded": "2020",
        "program_wave": "8",
        "latitude": "40.813274",
        "longitude": "-73.94148",
        "community_board": "10",
        "council_district": "9",
        "census_tract": "226",
        "bin": "1058228",
        "bbl": "1019180036",
        "nta": "Central Harlem North-Polo Grounds"
    },
    {
        "store_name": "ADAM 1 FOOD CENTER INC",
        "street_address": "2657 FREDERICK DOUGLAS BLVD",
        "borough": "New York",
        "zip_code": "10030",
        "year_awarded": "2020",
        "program_wave": "8",
        "latitude": "40.820741",
        "longitude": "-73.943464",
        "community_board": "10",
        "council_district": "9",
        "census_tract": "259",
        "bin": "1060752",
        "bbl": "1020430018",
        "nta": "Central Harlem North-Polo Grounds"
    },
    {
        "store_name": "BIG APPLE GRILL DELI INC",
        "street_address": "521 LENOX AVE",
        "borough": "New York",
        "zip_code": "10037",
        "year_awarded": "2020",
        "program_wave": "8",
        "latitude": "40.814873",
        "longitude": "-73.940311",
        "community_board": "10",
        "council_district": "9",
        "census_tract": "228",
        "bin": "1058330",
        "bbl": "1019210029",
        "nta": "Central Harlem North-Polo Grounds"
    },
    {
        "store_name": "EL PATIO DELI CORP",
        "street_address": "2082 MADISON AVE",
        "borough": "New York",
        "zip_code": "10037",
        "year_awarded": "2020",
        "program_wave": "8",
        "latitude": "40.809627",
        "longitude": "-73.93782",
        "community_board": "11",
        "council_district": "9",
        "census_tract": "206",
        "bin": "1054307",
        "bbl": "1017560014",
        "nta": "Central Harlem North-Polo Grounds"
    },
    {
        "store_name": "ESAYI CORP",
        "street_address": "2461 ADAM CLAYTON POWELL JR BLVD",
        "borough": "New York",
        "zip_code": "10030",
        "year_awarded": "2020",
        "program_wave": "8",
        "latitude": "40.820418",
        "longitude": "-73.939952",
        "community_board": "10",
        "council_district": "9",
        "census_tract": "232",
        "bin": "1060128",
        "bbl": "1020120001",
        "nta": "Central Harlem North-Polo Grounds"
    },
    {
        "store_name": "FUNFAIR DELI CORP",
        "street_address": "537 LENOX AVE",
        "borough": "New York",
        "zip_code": "10037",
        "year_awarded": "2020",
        "program_wave": "8",
        "latitude": "40.815499",
        "longitude": "-73.939852",
        "community_board": "10",
        "council_district": "9",
        "census_tract": "228",
        "bin": "1060002",
        "bbl": "1020060029",
        "nta": "Central Harlem North-Polo Grounds"
    },
    {
        "store_name": "GOLDEN DELI GROCERY CORP",
        "street_address": "2210 5TH AVE",
        "borough": "New York",
        "zip_code": "10037",
        "year_awarded": "2020",
        "program_wave": "8",
        "latitude": "40.812473",
        "longitude": "-73.937835",
        "community_board": "10",
        "council_district": "9",
        "census_tract": "212",
        "bin": "1053891",
        "bbl": "1017300040",
        "nta": "Central Harlem North-Polo Grounds"
    },
    {
        "store_name": "HARLEM EMPIRE DELI INC",
        "street_address": "251 WEST 135TH ST",
        "borough": "New York",
        "zip_code": "10030",
        "year_awarded": "2020",
        "program_wave": "8",
        "latitude": "40.815938",
        "longitude": "-73.94518",
        "community_board": "10",
        "council_district": "9",
        "census_tract": "228",
        "bin": "1058868",
        "bbl": "1019410001",
        "nta": "Central Harlem North-Polo Grounds"
    },
    {
        "store_name": "JANET FOOD CORP",
        "street_address": "2630 FREDERICK DOUGLASS BLVD",
        "borough": "New York",
        "zip_code": "10030",
        "year_awarded": "2020",
        "program_wave": "8",
        "latitude": "40.819764",
        "longitude": "-73.944155",
        "community_board": "10",
        "council_district": "9",
        "census_tract": "230",
        "bin": "1000000",
        "bbl": "1020260060",
        "nta": "Central Harlem North-Polo Grounds"
    },
    {
        "store_name": "K AND S DELI CORP",
        "street_address": "429 LENOX AVE",
        "borough": "New York",
        "zip_code": "10037",
        "year_awarded": "2020",
        "program_wave": "8",
        "latitude": "40.811888",
        "longitude": "-73.942496",
        "community_board": "10",
        "council_district": "9",
        "census_tract": "226",
        "bin": "1058104",
        "bbl": "1019160031",
        "nta": "Central Harlem North-Polo Grounds"
    },
    {
        "store_name": "LENOX AND 132ND FOOD CORP",
        "street_address": "448 LENOX AVE",
        "borough": "New York",
        "zip_code": "10037",
        "year_awarded": "2020",
        "program_wave": "8",
        "latitude": "40.812396",
        "longitude": "-73.942095",
        "community_board": "10",
        "council_district": "9",
        "census_tract": "212",
        "bin": "1053885",
        "bbl": "1017300001",
        "nta": "Central Harlem North-Polo Grounds"
    },
    {
        "store_name": "LINCOLN DELI GROCERY INC 1",
        "street_address": "2095 MADISON AVE",
        "borough": "New York",
        "zip_code": "10037",
        "year_awarded": "2020",
        "program_wave": "8",
        "latitude": "40.809959",
        "longitude": "-73.937238",
        "community_board": "11",
        "council_district": "9",
        "census_tract": "206",
        "bin": "1054327",
        "bbl": "1017560049",
        "nta": "Central Harlem North-Polo Grounds"
    },
    {
        "store_name": "MANDS FOOD CORP",
        "street_address": "2482 7TH AVE",
        "borough": "New York",
        "zip_code": "10030",
        "year_awarded": "2020",
        "program_wave": "8",
        "latitude": "40.821167",
        "longitude": "-73.939431",
        "community_board": "10",
        "council_district": "9",
        "census_tract": "232",
        "bin": "1060456",
        "bbl": "1020300029",
        "nta": "Central Harlem North-Polo Grounds"
    },
    {
        "store_name": "MR 2497 FOOD CORP",
        "street_address": "2497 7TH AVE",
        "borough": "New York",
        "zip_code": "10030",
        "year_awarded": "2020",
        "program_wave": "8",
        "latitude": "40.821482",
        "longitude": "-73.939178",
        "community_board": "10",
        "council_district": "9",
        "census_tract": "232",
        "bin": "1060175",
        "bbl": "1020130061",
        "nta": "Central Harlem North-Polo Grounds"
    },
    {
        "store_name": "NUNEZ DOMINGO",
        "street_address": "2591 8TH AVE",
        "borough": "New York",
        "zip_code": "10030",
        "year_awarded": "2020",
        "program_wave": "8",
        "latitude": "40.818518",
        "longitude": "-73.945088",
        "community_board": "10",
        "council_district": "9",
        "census_tract": "22102",
        "bin": "1060668",
        "bbl": "1020410047",
        "nta": "Central Harlem North-Polo Grounds"
    },
    {
        "store_name": "RIMAR GOURMET DELI INC",
        "street_address": "2611 FREDERICK DOUGLAS BLVD",
        "borough": "New York",
        "zip_code": "10030",
        "year_awarded": "2020",
        "program_wave": "8",
        "latitude": "40.819097",
        "longitude": "-73.944665",
        "community_board": "10",
        "council_district": "9",
        "census_tract": "22102",
        "bin": "1085457",
        "bbl": "1020427502",
        "nta": "Central Harlem North-Polo Grounds"
    },
    {
        "store_name": "ROSANNA FOOD CORP",
        "street_address": "592 LENOX AVE",
        "borough": "New York",
        "zip_code": "10037",
        "year_awarded": "2020",
        "program_wave": "8",
        "latitude": "40.817088",
        "longitude": "-73.938669",
        "community_board": "10",
        "council_district": "9",
        "census_tract": "214",
        "bin": "1053937",
        "bbl": "1017370011",
        "nta": "Central Harlem North-Polo Grounds"
    },
    {
        "store_name": "1029 FOOD PLAZA INC",
        "street_address": "122 EAST 181ST ST",
        "borough": "Bronx",
        "zip_code": "10453",
        "year_awarded": "2020",
        "program_wave": "8",
        "latitude": "40.854853",
        "longitude": "-73.903444",
        "community_board": "5",
        "council_district": "14",
        "census_tract": "241",
        "bin": "2013841",
        "bbl": "2031690034",
        "nta": "Mount Hope"
    },
    {
        "store_name": "109 AJ DELI GROCERY CORP",
        "street_address": "109 EAST TREMONT AVE",
        "borough": "Bronx",
        "zip_code": "10453",
        "year_awarded": "2020",
        "program_wave": "8",
        "latitude": "40.850673",
        "longitude": "-73.907372",
        "community_board": "5",
        "council_district": "14",
        "census_tract": "241",
        "bin": "2007656",
        "bbl": "2028070032",
        "nta": "Mount Hope"
    },
    {
        "store_name": "48 BURNSIDE FOOD CORP",
        "street_address": "40 WEST BURNSIDE AVE",
        "borough": "Bronx",
        "zip_code": "10453",
        "year_awarded": "2020",
        "program_wave": "8",
        "latitude": "40.853839",
        "longitude": "-73.909077",
        "community_board": "5",
        "council_district": "14",
        "census_tract": "243",
        "bin": "2008631",
        "bbl": "2028700026",
        "nta": "University Heights-Morris Heights"
    },
    {
        "store_name": "58 BURNSIDE FOOD CORP",
        "street_address": "58 WEST BURNSIDE AVE",
        "borough": "Bronx",
        "zip_code": "10453",
        "year_awarded": "2020",
        "program_wave": "8",
        "latitude": "40.854163",
        "longitude": "-73.909767",
        "community_board": "5",
        "council_district": "14",
        "census_tract": "243",
        "bin": "2008608",
        "bbl": "2028690127",
        "nta": "University Heights-Morris Heights"
    },
    {
        "store_name": "65 BURNSIDE MEAT MARKET CORP",
        "street_address": "65 EAST BURNSIDE AVE",
        "borough": "Bronx",
        "zip_code": "10453",
        "year_awarded": "2020",
        "program_wave": "8",
        "latitude": "40.853367",
        "longitude": "-73.906146",
        "community_board": "5",
        "council_district": "14",
        "census_tract": "241",
        "bin": "2013946",
        "bbl": "2031780001",
        "nta": "Mount Hope"
    },
    {
        "store_name": "ALEX FOOD II CORP",
        "street_address": "1615 UNIVERSITY AVE",
        "borough": "Bronx",
        "zip_code": "10453",
        "year_awarded": "2020",
        "program_wave": "8",
        "latitude": "40.847317",
        "longitude": "-73.919933",
        "community_board": "5",
        "council_district": "14",
        "census_tract": "21501",
        "bin": "2008983",
        "bbl": "2028780015",
        "nta": "University Heights-Morris Heights"
    },
    {
        "store_name": "BONAO MEATS AND PRODUCE II INC",
        "street_address": "82 EAST BURNSIDE AVE",
        "borough": "Bronx",
        "zip_code": "10453",
        "year_awarded": "2020",
        "program_wave": "8",
        "latitude": "40.853268",
        "longitude": "-73.905933",
        "community_board": "5",
        "council_district": "14",
        "census_tract": "241",
        "bin": "2007948",
        "bbl": "2028290045",
        "nta": "Mount Hope"
    },
    {
        "store_name": "BURNSIDE AVE FOOD CENTER INC",
        "street_address": "111 EAST BURNSIDE AVE",
        "borough": "Bronx",
        "zip_code": "10453",
        "year_awarded": "2020",
        "program_wave": "8",
        "latitude": "40.853059",
        "longitude": "-73.905344",
        "community_board": "5",
        "council_district": "14",
        "census_tract": "241",
        "bin": "2013846",
        "bbl": "2031690059",
        "nta": "Mount Hope"
    },
    {
        "store_name": "CRUZ MEAT CORP",
        "street_address": "2262 JEROME AVE",
        "borough": "Bronx",
        "zip_code": "10453",
        "year_awarded": "2020",
        "program_wave": "8",
        "latitude": "40.85815",
        "longitude": "-73.904025",
        "community_board": "5",
        "council_district": "14",
        "census_tract": "239",
        "bin": "2014063",
        "bbl": "2031860055",
        "nta": "Fordham South"
    },
    {
        "store_name": "GANDA DELI GROCERY CORP",
        "street_address": "129 WEST TREMONT AVE",
        "borough": "Bronx",
        "zip_code": "10453",
        "year_awarded": "2020",
        "program_wave": "8",
        "latitude": "40.850025",
        "longitude": "-73.913756",
        "community_board": "5",
        "council_district": "14",
        "census_tract": "243",
        "bin": "2008582",
        "bbl": "2028690001",
        "nta": "University Heights-Morris Heights"
    },
    {
        "store_name": "GAVA FOOD CORP",
        "street_address": "127 WEST BURNSIDE AVE",
        "borough": "Bronx",
        "zip_code": "10453",
        "year_awarded": "2020",
        "program_wave": "8",
        "latitude": "40.853829",
        "longitude": "-73.913899",
        "community_board": "5",
        "council_district": "14",
        "census_tract": "24502",
        "bin": "2014850",
        "bbl": "2032210005",
        "nta": "University Heights-Morris Heights"
    },
    {
        "store_name": "JD DELI AND PIZZA INC",
        "street_address": "2207 JEROME AVE",
        "borough": "Bronx",
        "zip_code": "10453",
        "year_awarded": "2020",
        "program_wave": "8",
        "latitude": "40.857217",
        "longitude": "-73.904601",
        "community_board": "5",
        "council_district": "14",
        "census_tract": "239",
        "bin": "2014209",
        "bbl": "2031960038",
        "nta": "Fordham South"
    },
    {
        "store_name": "JESSICA SUPERMARKET CORP",
        "street_address": "1645 GRAND AVE",
        "borough": "Bronx",
        "zip_code": "10453",
        "year_awarded": "2020",
        "program_wave": "8",
        "latitude": "40.846985",
        "longitude": "-73.91513",
        "community_board": "5",
        "council_district": "14",
        "census_tract": "21502",
        "bin": "2008449",
        "bbl": "2028660015",
        "nta": "University Heights-Morris Heights"
    },
    {
        "store_name": "JULIAN GROCERY CORP",
        "street_address": "143 WEST BURNSIDE AVE",
        "borough": "Bronx",
        "zip_code": "10453",
        "year_awarded": "2020",
        "program_wave": "8",
        "latitude": "40.853898",
        "longitude": "-73.91434",
        "community_board": "5",
        "council_district": "14",
        "census_tract": "24502",
        "bin": "2014851",
        "bbl": "2032210007",
        "nta": "University Heights-Morris Heights"
    },
    {
        "store_name": "LA GRAN FAMOSA FOOD MARKET CORP",
        "street_address": "1704 GRAND AVE",
        "borough": "Bronx",
        "zip_code": "10453",
        "year_awarded": "2020",
        "program_wave": "8",
        "latitude": "40.848507",
        "longitude": "-73.914025",
        "community_board": "5",
        "council_district": "14",
        "census_tract": "217",
        "bin": "2008497",
        "bbl": "2028670030",
        "nta": "University Heights-Morris Heights"
    },
    {
        "store_name": "LA PODEROSA GROCERY STORE CORP",
        "street_address": "27 EAST 175TH ST",
        "borough": "Bronx",
        "zip_code": "10453",
        "year_awarded": "2020",
        "program_wave": "8",
        "latitude": "40.847498",
        "longitude": "-73.911887",
        "community_board": "5",
        "council_district": "14",
        "census_tract": "22701",
        "bin": "2008212",
        "bbl": "2028500031",
        "nta": "Mount Hope"
    },
    {
        "store_name": "LOS COMPADRES - 1 GROCERY INC",
        "street_address": "21 WEST 176TH ST",
        "borough": "Bronx",
        "zip_code": "10453",
        "year_awarded": "2020",
        "program_wave": "8",
        "latitude": "40.848468",
        "longitude": "-73.913122",
        "community_board": "5",
        "council_district": "14",
        "census_tract": "217",
        "bin": "2008520",
        "bbl": "2028670155",
        "nta": "University Heights-Morris Heights"
    },
    {
        "store_name": "LOS PINOS FOOD CORP",
        "street_address": "148 EAST BURNSIDE AVE",
        "borough": "Bronx",
        "zip_code": "10453",
        "year_awarded": "2020",
        "program_wave": "8",
        "latitude": "40.852452",
        "longitude": "-73.904629",
        "community_board": "5",
        "council_district": "14",
        "census_tract": "23501",
        "bin": "2101575",
        "bbl": "2028080082",
        "nta": "Mount Hope"
    },
    {
        "store_name": "MORRIS BEST DELI AND GRILL INC",
        "street_address": "16 EAST 183RD ST",
        "borough": "Bronx",
        "zip_code": "10453",
        "year_awarded": "2020",
        "program_wave": "8",
        "latitude": "40.858583",
        "longitude": "-73.903355",
        "community_board": "5",
        "council_district": "14",
        "census_tract": "239",
        "bin": "2014065",
        "bbl": "2031860063",
        "nta": "Fordham South"
    },
    {
        "store_name": "MY FAMILY DELI GROCERY CORP",
        "street_address": "54 EAST 181ST ST",
        "borough": "Bronx",
        "zip_code": "10453",
        "year_awarded": "2020",
        "program_wave": "8",
        "latitude": "40.855271",
        "longitude": "-73.904564",
        "community_board": "5",
        "council_district": "14",
        "census_tract": "241",
        "bin": "2013952",
        "bbl": "2031780031",
        "nta": "Mount Hope"
    },
    {
        "store_name": "PALMAR MINI MARKET INC",
        "street_address": "2160 WALTON AVE",
        "borough": "Bronx",
        "zip_code": "10453",
        "year_awarded": "2020",
        "program_wave": "8",
        "latitude": "40.855644",
        "longitude": "-73.904491",
        "community_board": "5",
        "council_district": "14",
        "census_tract": "239",
        "bin": "2013969",
        "bbl": "2031800009",
        "nta": "Fordham South"
    },
    {
        "store_name": "PAN DELI GROCERY CORP",
        "street_address": "1893 ANDREWS AVE",
        "borough": "Bronx",
        "zip_code": "10453",
        "year_awarded": "2020",
        "program_wave": "8",
        "latitude": "40.85362",
        "longitude": "-73.913889",
        "community_board": "5",
        "council_district": "14",
        "census_tract": "24501",
        "bin": "2009122",
        "bbl": "2028790204",
        "nta": "University Heights-Morris Heights"
    },
    {
        "store_name": "PRIMAVERA DELI GROCERY CORP",
        "street_address": "79 EAST BURNSIDE AVE",
        "borough": "Bronx",
        "zip_code": "10453",
        "year_awarded": "2020",
        "program_wave": "8",
        "latitude": "40.853301",
        "longitude": "-73.905973",
        "community_board": "5",
        "council_district": "14",
        "census_tract": "241",
        "bin": "2013956",
        "bbl": "2031780060",
        "nta": "Mount Hope"
    },
    {
        "store_name": "PUNAL GROCERY CORP",
        "street_address": "218 WEST TREMONT AVE",
        "borough": "Bronx",
        "zip_code": "10453",
        "year_awarded": "2020",
        "program_wave": "8",
        "latitude": "40.85208",
        "longitude": "-73.91718",
        "community_board": "5",
        "council_district": "14",
        "census_tract": "20502",
        "bin": "2008965",
        "bbl": "2028770521",
        "nta": "University Heights-Morris Heights"
    },
    {
        "store_name": "RAYKELL FOOD CORP",
        "street_address": "78 WEST 183RD ST",
        "borough": "Bronx",
        "zip_code": "10453",
        "year_awarded": "2020",
        "program_wave": "8",
        "latitude": "40.859277",
        "longitude": "-73.906546",
        "community_board": "5",
        "council_district": "14",
        "census_tract": "251",
        "bin": "2014528",
        "bbl": "2032080036",
        "nta": "University Heights-Morris Heights"
    },
    {
        "store_name": "SABOR CRIOLLO GROCERY CORP",
        "street_address": "1841 GRAND CONCOURSE",
        "borough": "Bronx",
        "zip_code": "10453",
        "year_awarded": "2020",
        "program_wave": "8",
        "latitude": "40.848022",
        "longitude": "-73.907336",
        "community_board": "5",
        "council_district": "14",
        "census_tract": "23301",
        "bin": "2007620",
        "bbl": "2028050023",
        "nta": "Mount Hope"
    },
    {
        "store_name": "TEAMS MARKET INC",
        "street_address": "1791 WALTON AVE",
        "borough": "Bronx",
        "zip_code": "10453",
        "year_awarded": "2020",
        "program_wave": "8",
        "latitude": "40.848015",
        "longitude": "-73.909931",
        "community_board": "5",
        "council_district": "14",
        "census_tract": "22701",
        "bin": "2114111",
        "bbl": "2028500052",
        "nta": "Mount Hope"
    },
    {
        "store_name": "THREE TIMES C FOOD CORP",
        "street_address": "1707 UNIVERSITY AVE",
        "borough": "Bronx",
        "zip_code": "10453",
        "year_awarded": "2020",
        "program_wave": "8",
        "latitude": "40.849338",
        "longitude": "-73.917089",
        "community_board": "5",
        "council_district": "14",
        "census_tract": "21501",
        "bin": "2088267",
        "bbl": "2028780222",
        "nta": "University Heights-Morris Heights"
    },
    {
        "store_name": "TRES K DELI GRCY FRUITANDMEAT INC",
        "street_address": "125 WEST TREMONT AVE",
        "borough": "Bronx",
        "zip_code": "10453",
        "year_awarded": "2020",
        "program_wave": "8",
        "latitude": "40.850041",
        "longitude": "-73.913619",
        "community_board": "5",
        "council_district": "14",
        "census_tract": "243",
        "bin": "2008601",
        "bbl": "2028690058",
        "nta": "University Heights-Morris Heights"
    },
    {
        "store_name": "VILLA TRINA FOOD CORP",
        "street_address": "70 EAST 183RD ST",
        "borough": "Bronx",
        "zip_code": "10453",
        "year_awarded": "2020",
        "program_wave": "8",
        "latitude": "40.858247",
        "longitude": "-73.902387",
        "community_board": "5",
        "council_district": "14",
        "census_tract": "239",
        "bin": "2013992",
        "bbl": "2031820031",
        "nta": "Fordham South"
    },
    {
        "store_name": "Rivas Deli Grocery",
        "street_address": "651",
        "address": "East 183rd Street",
        "borough": "Bronx",
        "zip_code": "10458",
        "year_awarded": "2013",
        "program_wave": "1",
        "latitude": "40.852568",
        "longitude": "-73.887484",
        "community_board": "6",
        "council_district": "15",
        "census_tract": "391",
        "bin": "2012464",
        "bbl": "2030870033",
        "nta": "Belmont"
    },
    {
        "store_name": "C-Town",
        "street_address": "1761",
        "address": "Southern Boulevard",
        "borough": "Bronx",
        "zip_code": "10460",
        "year_awarded": "2013",
        "program_wave": "1",
        "latitude": "40.837267",
        "longitude": "-73.888016",
        "community_board": "3",
        "council_district": "17",
        "census_tract": "155",
        "bin": "2009878",
        "bbl": "2029400047",
        "nta": "Crotona Park East"
    },
    {
        "store_name": "La India Mini Market",
        "street_address": "1942",
        "address": "Marmion Avenue",
        "borough": "Bronx",
        "zip_code": "10460",
        "year_awarded": "2013",
        "program_wave": "1",
        "latitude": "40.842942",
        "longitude": "-73.887136",
        "community_board": "6",
        "council_district": "17",
        "census_tract": "36502",
        "bin": "2010156",
        "bbl": "2029600059",
        "nta": "East Tremont"
    },
    {
        "store_name": "Los Hermanos",
        "street_address": "2019",
        "address": "Vyse Avenue",
        "borough": "Bronx",
        "zip_code": "10460",
        "year_awarded": "2013",
        "program_wave": "1",
        "latitude": "40.842391",
        "longitude": "-73.881835",
        "community_board": "6",
        "council_district": "17",
        "census_tract": "363",
        "bin": "2013203",
        "bbl": "2031270020",
        "nta": "East Tremont"
    },
    {
        "store_name": "Price Choice Food Market",
        "street_address": "820",
        "address": "East 180th Street",
        "borough": "Bronx",
        "zip_code": "10460",
        "year_awarded": "2013",
        "program_wave": "1",
        "latitude": "40.846173",
        "longitude": "-73.884871",
        "community_board": "6",
        "council_district": "15",
        "census_tract": "36501",
        "bin": "2012955",
        "bbl": "2031080008",
        "nta": "East Tremont"
    },
    {
        "store_name": "D&A Deli Grocery",
        "street_address": "1155",
        "address": "East Tremont Avenue",
        "borough": "Bronx",
        "zip_code": "10460",
        "year_awarded": "2013",
        "program_wave": "1",
        "latitude": "40.839889",
        "longitude": "-73.875193",
        "community_board": "6",
        "council_district": "15",
        "census_tract": "220",
        "bin": "2042470",
        "bbl": "2040070022",
        "nta": "East Tremont"
    },
    {
        "store_name": "Lucky Star Gourmet Deli",
        "street_address": "856",
        "address": "East 188th Street",
        "borough": "Bronx",
        "zip_code": "10460",
        "year_awarded": "2013",
        "program_wave": "1"
    },
    {
        "store_name": "Food Choice",
        "street_address": "333",
        "address": "East 184th Street",
        "borough": "Bronx",
        "zip_code": "10458",
        "year_awarded": "2013",
        "program_wave": "1",
        "latitude": "40.858274",
        "longitude": "-73.896071",
        "community_board": "5",
        "council_district": "15",
        "census_tract": "39902",
        "bin": "2010979",
        "bbl": "2030220001",
        "nta": "Bedford Park-Fordham North"
    },
    {
        "store_name": "Cache Grocery",
        "street_address": "804",
        "address": "East 178th Street",
        "borough": "Bronx",
        "zip_code": "10460",
        "year_awarded": "2013",
        "program_wave": "1",
        "latitude": "40.844534",
        "longitude": "-73.887046",
        "community_board": "6",
        "council_district": "17",
        "census_tract": "36501",
        "bin": "2012942",
        "bbl": "2031070004",
        "nta": "East Tremont"
    },
    {
        "store_name": "Associated Supermarket",
        "street_address": "1334",
        "address": "Louis Nine Boulevard",
        "borough": "Bronx",
        "zip_code": "10459",
        "year_awarded": "2013",
        "program_wave": "1",
        "latitude": "40.831441",
        "longitude": "-73.892279",
        "community_board": "3",
        "council_district": "17",
        "census_tract": "123",
        "bin": "2118405",
        "bbl": "2029767501",
        "nta": "Crotona Park East"
    },
    {
        "store_name": "AZ Deli",
        "street_address": "1093A",
        "address": "Southern Boulevard",
        "borough": "Bronx",
        "zip_code": "10459",
        "year_awarded": "2013",
        "program_wave": "1",
        "latitude": "40.825924",
        "longitude": "-73.89193",
        "community_board": "2",
        "council_district": "17",
        "census_tract": "12701",
        "bin": "2005806",
        "bbl": "2027270045",
        "nta": "Hunts Point"
    },
    {
        "store_name": "Price Choice Food Market",
        "street_address": "807",
        "address": "Tremont Avenue",
        "borough": "Bronx",
        "zip_code": "10460",
        "year_awarded": "2013",
        "program_wave": "1"
    },
    {
        "store_name": "Key Foods",
        "street_address": "1050",
        "address": "Westchester Boulevard",
        "borough": "Bronx",
        "zip_code": "10459",
        "year_awarded": "2013",
        "program_wave": "1"
    },
    {
        "store_name": "Pioneer Supermarket",
        "street_address": "2865",
        "address": "Webester Avenue",
        "borough": "Bronx",
        "zip_code": "10458",
        "year_awarded": "2013",
        "program_wave": "1"
    },
    {
        "store_name": "Compare Foods",
        "street_address": "4800",
        "address": "Park Avenue",
        "borough": "Bronx",
        "zip_code": "10458",
        "year_awarded": "2013",
        "program_wave": "1"
    },
    {
        "store_name": "Met Supermarket",
        "street_address": "277",
        "address": "198th Street",
        "borough": "Bronx",
        "zip_code": "10458",
        "year_awarded": "2013",
        "program_wave": "1"
    },
    {
        "store_name": "EEJ Deli",
        "street_address": "550",
        "address": "East 187th Street",
        "borough": "Bronx",
        "zip_code": "10458",
        "year_awarded": "2013",
        "program_wave": "1",
        "latitude": "40.856355",
        "longitude": "-73.889094",
        "community_board": "6",
        "council_district": "15",
        "census_tract": "387",
        "bin": "2011662",
        "bbl": "2030540022",
        "nta": "Belmont"
    },
    {
        "store_name": "Santana",
        "street_address": "4664",
        "address": "Park Avenue",
        "borough": "Bronx",
        "zip_code": "10458",
        "year_awarded": "2013",
        "program_wave": "1",
        "latitude": "40.85817",
        "longitude": "-73.892869",
        "community_board": "6",
        "council_district": "15",
        "census_tract": "385",
        "bin": "2011392",
        "bbl": "2030400007",
        "nta": "Claremont-Bathgate"
    },
    {
        "store_name": "FineFare",
        "street_address": "1472",
        "address": "Boston Road",
        "borough": "Bronx",
        "zip_code": "10460",
        "year_awarded": "2013",
        "program_wave": "1",
        "latitude": "40.834232",
        "longitude": "-73.89488",
        "community_board": "3",
        "council_district": "16",
        "census_tract": "153",
        "bin": "2010262",
        "bbl": "2029640042",
        "nta": "Crotona Park East"
    },
    {
        "store_name": "Deli Grocery",
        "street_address": "275",
        "address": "East Kingsbridge Road",
        "borough": "Bronx",
        "zip_code": "10458",
        "year_awarded": "2013",
        "program_wave": "1",
        "latitude": "40.863691",
        "longitude": "-73.894244",
        "community_board": "7",
        "council_district": "15",
        "census_tract": "39901",
        "bin": "2016817",
        "bbl": "2032930106",
        "nta": "Bedford Park-Fordham North"
    },
    {
        "store_name": "965 Castillo Meat and Produce",
        "street_address": "965",
        "address": "East 172nd Street",
        "borough": "Bronx",
        "zip_code": "10460",
        "year_awarded": "2013",
        "program_wave": "1",
        "latitude": "40.833364",
        "longitude": "-73.887683",
        "community_board": "3",
        "council_district": "17",
        "census_tract": "157",
        "bin": "2010797",
        "bbl": "2029960049",
        "nta": "Crotona Park East"
    },
    {
        "store_name": "Santos",
        "street_address": "2641",
        "address": "Bainbridge Avenue",
        "borough": "Bronx",
        "zip_code": "10458",
        "year_awarded": "2013",
        "program_wave": "1",
        "latitude": "40.864814",
        "longitude": "-73.892048",
        "community_board": "7",
        "council_district": "15",
        "census_tract": "40501",
        "bin": "2016832",
        "bbl": "2032940001",
        "nta": "Bedford Park-Fordham North"
    },
    {
        "store_name": "Alondra Food Corp.",
        "street_address": "838",
        "address": "East 180th Street",
        "borough": "Bronx",
        "zip_code": "10460",
        "year_awarded": "2013",
        "program_wave": "1",
        "latitude": "40.8457",
        "longitude": "-73.883911",
        "community_board": "6",
        "council_district": "17",
        "census_tract": "363",
        "bin": "2088384",
        "bbl": "2031180157",
        "nta": "East Tremont"
    },
    {
        "store_name": "Brianelly",
        "street_address": "2308",
        "address": "Washington Avenue",
        "borough": "Bronx",
        "zip_code": "10458",
        "year_awarded": "2013",
        "program_wave": "1",
        "latitude": "40.855606",
        "longitude": "-73.892808",
        "community_board": "6",
        "council_district": "15",
        "census_tract": "385",
        "bin": "2011628",
        "bbl": "2030530062",
        "nta": "Claremont-Bathgate"
    },
    {
        "store_name": "Emerald Food Store",
        "street_address": "2709-11",
        "address": "Briggs Avenue",
        "borough": "Bronx",
        "zip_code": "10458",
        "year_awarded": "2013",
        "program_wave": "1",
        "latitude": "40.866359",
        "longitude": "-73.891673",
        "community_board": "7",
        "council_district": "15",
        "census_tract": "40501",
        "bin": "2115734",
        "bbl": "2033000055",
        "nta": "Bedford Park-Fordham North"
    },
    {
        "store_name": "Bx Supermarket/Compare Foods",
        "street_address": "312",
        "address": "E. 194th Street",
        "borough": "Bronx",
        "zip_code": "10458",
        "year_awarded": "2013",
        "program_wave": "1",
        "latitude": "40.864421",
        "longitude": "-73.891799",
        "community_board": "7",
        "council_district": "15",
        "census_tract": "39901",
        "bin": "2016607",
        "bbl": "2032870008",
        "nta": "Bedford Park-Fordham North"
    },
    {
        "store_name": "1030 Deli & Food Corp",
        "street_address": "1030",
        "address": "East Tremont Avenue",
        "borough": "Bronx",
        "zip_code": "10460",
        "year_awarded": "2013",
        "program_wave": "1",
        "latitude": "40.840342",
        "longitude": "-73.88087",
        "community_board": "6",
        "council_district": "17",
        "census_tract": "359",
        "bin": "2010893",
        "bbl": "2030050065",
        "nta": "East Tremont"
    },
    {
        "store_name": "Kelvin Food Mart, Inc",
        "street_address": "724",
        "address": "East 187th Street",
        "borough": "Bronx",
        "zip_code": "10458",
        "year_awarded": "2013",
        "program_wave": "1",
        "latitude": "40.853863",
        "longitude": "-73.883499",
        "community_board": "6",
        "council_district": "15",
        "census_tract": "393",
        "bin": "2092312",
        "bbl": "2031020029",
        "nta": "Belmont"
    },
    {
        "store_name": "Stop One",
        "street_address": "2431",
        "address": "Hoffman Street",
        "borough": "Bronx",
        "zip_code": "10458",
        "year_awarded": "2013",
        "program_wave": "1",
        "latitude": "40.856754",
        "longitude": "-73.887821",
        "community_board": "6",
        "council_district": "15",
        "census_tract": "387",
        "nta": "Belmont"
    },
    {
        "store_name": "A-Mart",
        "street_address": "2433",
        "address": "Hoffman Street",
        "borough": "Bronx",
        "zip_code": "10458",
        "year_awarded": "2013",
        "program_wave": "1",
        "latitude": "40.857023",
        "longitude": "-73.887585",
        "community_board": "6",
        "council_district": "15",
        "census_tract": "387",
        "bin": "2011809",
        "bbl": "2030580105",
        "nta": "Belmont"
    },
    {
        "store_name": "Modern Food",
        "street_address": "2385",
        "address": "Arthur Avenue",
        "borough": "Bronx",
        "zip_code": "10458",
        "year_awarded": "2013",
        "program_wave": "1",
        "latitude": "40.855237",
        "longitude": "-73.887849",
        "community_board": "6",
        "council_district": "15",
        "census_tract": "391",
        "bin": "2011890",
        "bbl": "2030650033",
        "nta": "Belmont"
    },
    {
        "store_name": "Mickey & Elvis College",
        "street_address": "717",
        "address": "East 187th Street",
        "borough": "Bronx",
        "zip_code": "10458",
        "year_awarded": "2013",
        "program_wave": "1",
        "latitude": "40.854025",
        "longitude": "-73.883997",
        "community_board": "6",
        "council_district": "15",
        "census_tract": "389",
        "bin": "2012928",
        "bbl": "2031050058",
        "nta": "Belmont"
    },
    {
        "store_name": "Bronx Zoo Deli Corp",
        "street_address": "732",
        "address": "East 187th Street",
        "borough": "Bronx",
        "zip_code": "10460",
        "year_awarded": "2013",
        "program_wave": "1",
        "latitude": "40.853821",
        "longitude": "-73.883351",
        "community_board": "6",
        "council_district": "15",
        "census_tract": "393",
        "bin": "2012837",
        "bbl": "2031020030",
        "nta": "Belmont"
    },
    {
        "store_name": "548 Gourmet Deli",
        "street_address": "548",
        "address": "East 183rd Street",
        "borough": "Bronx",
        "zip_code": "10458",
        "year_awarded": "2013",
        "program_wave": "1",
        "latitude": "40.854186",
        "longitude": "-73.891042",
        "community_board": "6",
        "council_district": "15",
        "census_tract": "385",
        "bin": "2011589",
        "bbl": "2030510031",
        "nta": "Claremont-Bathgate"
    },
    {
        "store_name": "Danery's Grocery Corp.",
        "street_address": "765",
        "address": "East 175th Street",
        "borough": "Bronx",
        "zip_code": "10460",
        "year_awarded": "2013",
        "program_wave": "1",
        "latitude": "40.841486",
        "longitude": "-73.891125",
        "community_board": "6",
        "council_district": "17",
        "census_tract": "367",
        "bin": "2010014",
        "bbl": "2029530001",
        "nta": "East Tremont"
    },
    {
        "store_name": "Will Grocery & Meat Market",
        "street_address": "1492",
        "address": "Vyse Avenue",
        "borough": "Bronx",
        "zip_code": "10460",
        "year_awarded": "2013",
        "program_wave": "1",
        "latitude": "40.833029",
        "longitude": "-73.888186",
        "community_board": "3",
        "council_district": "17",
        "census_tract": "157",
        "bin": "2010757",
        "bbl": "2029950017",
        "nta": "Crotona Park East"
    },
    {
        "store_name": "A & G Gourmet Deli",
        "street_address": "2132",
        "address": "Mohegan Avenue",
        "borough": "Bronx",
        "zip_code": "10460",
        "year_awarded": "2013",
        "program_wave": "1",
        "latitude": "40.84641",
        "longitude": "-73.882688",
        "community_board": "6",
        "council_district": "15",
        "census_tract": "363",
        "bin": "2013164",
        "bbl": "2031240043",
        "nta": "East Tremont"
    },
    {
        "store_name": "Ca\u00f1a Arriba",
        "street_address": "1465",
        "address": "Bryant Avenue",
        "borough": "Bronx",
        "zip_code": "10460",
        "year_awarded": "2013",
        "program_wave": "1",
        "latitude": "40.831953",
        "longitude": "-73.887823",
        "community_board": "3",
        "council_district": "17",
        "census_tract": "157",
        "bin": "2010773",
        "bbl": "2029950042",
        "nta": "Crotona Park East"
    },
    {
        "store_name": "885 East Tremont Deli",
        "street_address": "885",
        "address": "East Tremont Avenue",
        "borough": "Bronx",
        "zip_code": "10460",
        "year_awarded": "2013",
        "program_wave": "1",
        "latitude": "40.842463",
        "longitude": "-73.885123",
        "community_board": "6",
        "council_district": "17",
        "census_tract": "363",
        "bin": "2013110",
        "bbl": "2031210002",
        "nta": "East Tremont"
    },
    {
        "store_name": "Pioneer Supermarket",
        "street_address": "2865",
        "address": "Webester Avenue",
        "borough": "Bronx",
        "zip_code": "10458",
        "year_awarded": "2013",
        "program_wave": "1"
    },
    {
        "store_name": "Compare Foods",
        "street_address": "4800",
        "address": "Park Avenue",
        "borough": "Bronx",
        "zip_code": "10458",
        "year_awarded": "2013",
        "program_wave": "1"
    },
    {
        "store_name": "Tejada Castillo Food Corporation",
        "street_address": "1675",
        "address": "Boston Road",
        "borough": "Bronx",
        "zip_code": "10458",
        "year_awarded": "2013",
        "program_wave": "1",
        "latitude": "40.836404",
        "longitude": "-73.889409",
        "community_board": "3",
        "council_district": "17",
        "census_tract": "155",
        "bin": "2009883",
        "bbl": "2029400065",
        "nta": "Crotona Park East"
    },
    {
        "store_name": "Tony's Family",
        "street_address": "526",
        "address": "East 183rd Street",
        "borough": "Bronx",
        "zip_code": "10458",
        "year_awarded": "2013",
        "program_wave": "1",
        "latitude": "40.854678",
        "longitude": "-73.891945",
        "community_board": "6",
        "council_district": "15",
        "census_tract": "385",
        "bin": "2011560",
        "bbl": "2030500066",
        "nta": "Claremont-Bathgate"
    },
    {
        "store_name": "Compare Foods",
        "street_address": "2477",
        "address": "Valentine Avenue",
        "borough": "Bronx",
        "zip_code": "10458",
        "year_awarded": "2013",
        "program_wave": "1",
        "latitude": "40.86156",
        "longitude": "-73.896196",
        "community_board": "5",
        "council_district": "15",
        "census_tract": "23702",
        "bin": "2013602",
        "bbl": "2031530031",
        "nta": "Bedford Park-Fordham North"
    },
    {
        "store_name": "20/20 Deli",
        "street_address": "1120",
        "address": "Southern Boulevard",
        "borough": "Bronx",
        "zip_code": "10459",
        "year_awarded": "2014",
        "program_wave": "2",
        "latitude": "40.827058",
        "longitude": "-73.891896",
        "community_board": "3",
        "council_district": "17",
        "census_tract": "125",
        "bin": "2006049",
        "bbl": "2027450001",
        "nta": "Morrisania-Melrose"
    },
    {
        "store_name": "543 Deli",
        "street_address": "543",
        "address": "Southern Boulevard",
        "borough": "Bronx",
        "zip_code": "10455",
        "year_awarded": "2014",
        "program_wave": "2",
        "latitude": "40.812296",
        "longitude": "-73.90361",
        "community_board": "2",
        "council_district": "17",
        "census_tract": "83",
        "bin": "2005080",
        "bbl": "2026830001",
        "nta": "Longwood"
    },
    {
        "store_name": "908 Garcia Fruit and Grocery",
        "street_address": "908",
        "address": "East 163rd Street",
        "borough": "Bronx",
        "zip_code": "10459",
        "year_awarded": "2014",
        "program_wave": "2",
        "latitude": "40.821006",
        "longitude": "-73.898026",
        "community_board": "2",
        "council_district": "17",
        "census_tract": "87",
        "bin": "2005349",
        "bbl": "2026960103",
        "nta": "Longwood"
    },
    {
        "store_name": "Alan Deli Grocery",
        "street_address": "798",
        "address": "East 170th Street",
        "borough": "Bronx",
        "zip_code": "10459",
        "year_awarded": "2014",
        "program_wave": "2",
        "latitude": "40.833138",
        "longitude": "-73.89559",
        "community_board": "3",
        "council_district": "16",
        "census_tract": "153",
        "bin": "2010216",
        "bbl": "2029630012",
        "nta": "Crotona Park East"
    },
    {
        "store_name": "Amelia Grocery",
        "street_address": "954",
        "address": "Prospect Avenue",
        "borough": "Bronx",
        "zip_code": "10459",
        "year_awarded": "2014",
        "program_wave": "2",
        "latitude": "40.822696",
        "longitude": "-73.900354",
        "community_board": "2",
        "council_district": "17",
        "census_tract": "12901",
        "bin": "2005207",
        "bbl": "2026900105",
        "nta": "Longwood"
    },
    {
        "store_name": "Asociados Meat Market",
        "street_address": "1025",
        "address": "Westchester Avenue",
        "borough": "Bronx",
        "zip_code": "10459",
        "year_awarded": "2014",
        "program_wave": "2",
        "latitude": "40.824114",
        "longitude": "-73.893017",
        "community_board": "2",
        "council_district": "17",
        "census_tract": "12701",
        "bin": "2095487",
        "bbl": "2027260070",
        "nta": "Hunts Point"
    },
    {
        "store_name": "Associated Supermarket",
        "street_address": "1334",
        "address": "Louis Nine Boulevard",
        "borough": "Bronx",
        "zip_code": "10459",
        "year_awarded": "2014",
        "program_wave": "2",
        "latitude": "40.831441",
        "longitude": "-73.892279",
        "community_board": "3",
        "council_district": "17",
        "census_tract": "123",
        "bin": "2118405",
        "bbl": "2029767501",
        "nta": "Crotona Park East"
    },
    {
        "store_name": "Celia",
        "street_address": "966",
        "address": "Longwood Avenue",
        "borough": "Bronx",
        "zip_code": "10459",
        "year_awarded": "2014",
        "program_wave": "2",
        "latitude": "40.817424",
        "longitude": "-73.898101",
        "community_board": "2",
        "council_district": "8",
        "census_tract": "85",
        "bin": "2005569",
        "bbl": "2027080046",
        "nta": "Longwood"
    },
    {
        "store_name": "Crystal Grocery",
        "street_address": "1090",
        "address": "Longfellow Avenue",
        "borough": "Bronx",
        "zip_code": "10459",
        "year_awarded": "2014",
        "program_wave": "2",
        "latitude": "40.826005",
        "longitude": "-73.887826",
        "community_board": "2",
        "council_district": "17",
        "census_tract": "12102",
        "bin": "2006286",
        "bbl": "2027570066",
        "nta": "Hunts Point"
    },
    {
        "store_name": "Deli Farm Meat and Grocery",
        "street_address": "850",
        "address": "Longwood Avenue",
        "borough": "Bronx",
        "zip_code": "10459",
        "year_awarded": "2014",
        "program_wave": "2",
        "latitude": "40.819376",
        "longitude": "-73.901378",
        "community_board": "2",
        "council_district": "17",
        "census_tract": "85",
        "bin": "2005169",
        "bbl": "2026880048",
        "nta": "Longwood"
    },
    {
        "store_name": "El Patio Grocery",
        "street_address": "643",
        "address": "Wales Avenue/766 E 152 ST",
        "borough": "Bronx",
        "zip_code": "10455",
        "year_awarded": "2014",
        "program_wave": "2"
    },
    {
        "store_name": "Fair Farm",
        "street_address": "950",
        "address": "Westchester Avenue",
        "borough": "Bronx",
        "zip_code": "10459",
        "year_awarded": "2014",
        "program_wave": "2",
        "latitude": "40.822388",
        "longitude": "-73.896326",
        "community_board": "2",
        "council_district": "17",
        "census_tract": "87",
        "bin": "2114693",
        "bbl": "2027037501",
        "nta": "Longwood"
    },
    {
        "store_name": "Genao Food Store",
        "street_address": "926",
        "address": "Intervale Avenue",
        "borough": "Bronx",
        "zip_code": "10459",
        "year_awarded": "2014",
        "program_wave": "2",
        "latitude": "40.819986",
        "longitude": "-73.896695",
        "community_board": "2",
        "council_district": "17",
        "census_tract": "87",
        "bin": "2005450",
        "bbl": "2027030001",
        "nta": "Longwood"
    },
    {
        "store_name": "Home Street Deli",
        "street_address": "-892",
        "address": "894 Home Street",
        "borough": "Bronx",
        "zip_code": "10459",
        "year_awarded": "2014",
        "program_wave": "2"
    },
    {
        "store_name": "Ivoire African Market",
        "street_address": "1339",
        "address": "Prospect Avenue",
        "borough": "Bronx",
        "zip_code": "10459",
        "year_awarded": "2014",
        "program_wave": "2",
        "latitude": "40.829569",
        "longitude": "-73.897522",
        "community_board": "3",
        "council_district": "17",
        "census_tract": "151",
        "bin": "2010310",
        "bbl": "2029680008",
        "nta": "Morrisania-Melrose"
    },
    {
        "store_name": "J&W Food Center",
        "street_address": "990",
        "address": "Leggett Avenue",
        "borough": "Bronx",
        "zip_code": "10455",
        "year_awarded": "2014",
        "program_wave": "2",
        "latitude": "40.814565",
        "longitude": "-73.899875",
        "community_board": "2",
        "council_district": "17",
        "census_tract": "83",
        "bin": "2005101",
        "bbl": "2026840076",
        "nta": "Longwood"
    },
    {
        "store_name": "Los Hermanos Meat & Grocery",
        "street_address": "501B",
        "address": "Jackson Avenue",
        "borough": "Bronx",
        "zip_code": "10455",
        "year_awarded": "2014",
        "program_wave": "2",
        "latitude": "40.812032",
        "longitude": "-73.909517",
        "community_board": "1",
        "council_district": "8",
        "census_tract": "35",
        "bin": "2003696",
        "bbl": "2025570078",
        "nta": "Mott Haven-Port Morris"
    },
    {
        "store_name": "Luis & Angie Deli Grocery",
        "street_address": "976",
        "address": "Prospect Avenue",
        "borough": "Bronx",
        "zip_code": "10459",
        "year_awarded": "2014",
        "program_wave": "2",
        "latitude": "40.823225",
        "longitude": "-73.900133",
        "community_board": "2",
        "council_district": "17",
        "census_tract": "12901",
        "bin": "2005212",
        "bbl": "2026900119",
        "nta": "Longwood"
    },
    {
        "store_name": "Paulino Deli Grocery",
        "street_address": "798",
        "address": "Hunts Point Avenue",
        "borough": "Bronx",
        "zip_code": "10474",
        "year_awarded": "2014",
        "program_wave": "2",
        "latitude": "40.816473",
        "longitude": "-73.887795",
        "community_board": "2",
        "council_district": "17",
        "census_tract": "117",
        "bin": "2006548",
        "bbl": "2027630190",
        "nta": "Hunts Point"
    },
    {
        "store_name": "REAL Supermarket",
        "street_address": "818",
        "address": "Westchester Ave. (795 Prospect Ave.)",
        "borough": "Bronx",
        "zip_code": "10459",
        "year_awarded": "2014",
        "program_wave": "2",
        "latitude": "40.819173",
        "longitude": "-73.902571",
        "community_board": "1",
        "council_district": "17",
        "census_tract": "79",
        "bin": "2004992",
        "bbl": "2026760049",
        "nta": "Melrose South-Mott Haven North"
    },
    {
        "store_name": "Salgados Superette",
        "street_address": "1131",
        "address": "West Farms Road",
        "borough": "Bronx",
        "zip_code": "10459",
        "year_awarded": "2014",
        "program_wave": "2",
        "latitude": "40.82643",
        "longitude": "-73.890307",
        "community_board": "2",
        "council_district": "17",
        "census_tract": "12701",
        "bin": "2006048",
        "bbl": "2027440063",
        "nta": "Hunts Point"
    },
    {
        "store_name": "South Side Food",
        "street_address": "726",
        "address": "East 152nd Street",
        "borough": "Bronx",
        "zip_code": "10455",
        "year_awarded": "2014",
        "program_wave": "2",
        "latitude": "40.816005",
        "longitude": "-73.907976",
        "community_board": "1",
        "council_district": "8",
        "census_tract": "73",
        "bin": "2004560",
        "bbl": "2026430013",
        "nta": "Melrose South-Mott Haven North"
    },
    {
        "store_name": "Super Deli Grocery Store",
        "street_address": "740",
        "address": "East 149th Street",
        "borough": "Bronx",
        "zip_code": "10455",
        "year_awarded": "2014",
        "program_wave": "2",
        "latitude": "40.813082",
        "longitude": "-73.908389",
        "community_board": "1",
        "council_district": "8",
        "census_tract": "35",
        "bin": "2003927",
        "bbl": "2025790025",
        "nta": "Mott Haven-Port Morris"
    },
    {
        "store_name": "Top Quality",
        "street_address": "1019",
        "address": "SIimpson Street",
        "borough": "Bronx",
        "zip_code": "10459",
        "year_awarded": "2014",
        "program_wave": "2"
    },
    {
        "store_name": "Torres Meat & Grocery",
        "street_address": "950",
        "address": "Longwood Avenue",
        "borough": "Bronx",
        "zip_code": "10459",
        "year_awarded": "2014",
        "program_wave": "2",
        "latitude": "40.817614",
        "longitude": "-73.898415",
        "community_board": "2",
        "council_district": "8",
        "census_tract": "85",
        "bin": "2005568",
        "bbl": "2027080040",
        "nta": "Longwood"
    },
    {
        "store_name": "Union Foods",
        "street_address": "835",
        "address": "East152nd Street",
        "borough": "Bronx",
        "zip_code": "10455",
        "year_awarded": "2014",
        "program_wave": "2",
        "latitude": "40.815242",
        "longitude": "-73.904242",
        "community_board": "1",
        "council_district": "17",
        "census_tract": "79",
        "bin": "2004919",
        "bbl": "2026750001",
        "nta": "Melrose South-Mott Haven North"
    },
    {
        "store_name": "VR Vegetable N Grocery",
        "street_address": "928",
        "address": "Sothern Boulevard",
        "borough": "Bronx",
        "zip_code": "10459",
        "year_awarded": "2014",
        "program_wave": "2"
    },
    {
        "store_name": "3368 Cypress Deli & Grocery",
        "street_address": "3368",
        "address": "Fulton Street",
        "borough": "Brooklyn",
        "zip_code": "11208",
        "year_awarded": "2015",
        "program_wave": "2",
        "latitude": "40.683854",
        "longitude": "-73.871439",
        "community_board": "5",
        "council_district": "37",
        "census_tract": "1184",
        "bin": "3092807",
        "bbl": "3041470039",
        "nta": "Cypress Hills-City Line"
    },
    {
        "store_name": "Apple Deli and Grill",
        "street_address": "1203",
        "address": "Sutter Avenue",
        "borough": "Brooklyn",
        "zip_code": "11208",
        "year_awarded": "2015",
        "program_wave": "2",
        "latitude": "40.672551",
        "longitude": "-73.873509",
        "community_board": "5",
        "council_district": "42",
        "census_tract": "1196",
        "bin": "3095362",
        "bbl": "3042480001",
        "nta": "East New York"
    },
    {
        "store_name": "Bangla Supermarket",
        "street_address": "1211",
        "address": "Liberty Avenue",
        "borough": "Brooklyn",
        "zip_code": "11208",
        "year_awarded": "2015",
        "program_wave": "2",
        "latitude": "40.678988",
        "longitude": "-73.864858",
        "community_board": "5",
        "council_district": "37",
        "census_tract": "1188",
        "bin": "3094137",
        "bbl": "3041840065",
        "nta": "Cypress Hills-City Line"
    },
    {
        "store_name": "Claribel Deli & Grocery",
        "street_address": "241",
        "address": "Ridgewood Avenue",
        "borough": "Brooklyn",
        "zip_code": "11208",
        "year_awarded": "2015",
        "program_wave": "2",
        "latitude": "40.683696",
        "longitude": "-73.87966",
        "community_board": "5",
        "council_district": "37",
        "census_tract": "1174",
        "bin": "3086802",
        "bbl": "3039160030",
        "nta": "Cypress Hills-City Line"
    },
    {
        "store_name": "Dari's Grocery",
        "street_address": "224",
        "address": "Lincoln Avenue",
        "borough": "Brooklyn",
        "zip_code": "11208",
        "year_awarded": "2015",
        "program_wave": "2",
        "latitude": "40.684755",
        "longitude": "-73.869599",
        "community_board": "5",
        "council_district": "37",
        "census_tract": "1184",
        "bin": "3092433",
        "bbl": "3041330054",
        "nta": "Cypress Hills-City Line"
    },
    {
        "store_name": "Decayagua Deli Grocery",
        "street_address": "290",
        "address": "Arlington Avenue",
        "borough": "Brooklyn",
        "zip_code": "11208",
        "year_awarded": "2015",
        "program_wave": "2",
        "latitude": "40.680961",
        "longitude": "-73.883826",
        "community_board": "5",
        "council_district": "37",
        "census_tract": "1168",
        "bin": "3087697",
        "bbl": "3039420001",
        "nta": "East New York"
    },
    {
        "store_name": "Dumont Deli & Grocery",
        "street_address": "690",
        "address": "Linwood St.",
        "borough": "Brooklyn",
        "zip_code": "11208",
        "year_awarded": "2015",
        "program_wave": "2",
        "latitude": "40.668497",
        "longitude": "-73.88122",
        "community_board": "5",
        "council_district": "42",
        "census_tract": "1164",
        "bin": "3090191",
        "bbl": "3040660039",
        "nta": "East New York"
    },
    {
        "store_name": "Four Star Supermarket",
        "street_address": "1075",
        "address": "Liberty Avenue",
        "borough": "Brooklyn",
        "zip_code": "11208",
        "year_awarded": "2015",
        "program_wave": "2",
        "latitude": "40.678354",
        "longitude": "-73.869546",
        "community_board": "5",
        "council_district": "37",
        "census_tract": "1190",
        "bin": "3093593",
        "bbl": "3041710029",
        "nta": "Cypress Hills-City Line"
    },
    {
        "store_name": "Fulton Gourmet Deli and Grill",
        "street_address": "3336",
        "address": "Fulton St",
        "borough": "Brooklyn",
        "zip_code": "11208",
        "year_awarded": "2015",
        "program_wave": "2",
        "latitude": "40.683548",
        "longitude": "-73.872518",
        "community_board": "5",
        "council_district": "37",
        "census_tract": "1178",
        "bin": "3092740",
        "bbl": "3041460037",
        "nta": "Cypress Hills-City Line"
    },
    {
        "store_name": "J and J Grocery",
        "street_address": "1055",
        "address": "Blake Avenue",
        "borough": "Brooklyn",
        "zip_code": "11208",
        "year_awarded": "2015",
        "program_wave": "2",
        "latitude": "40.670136",
        "longitude": "-73.879335",
        "community_board": "5",
        "council_district": "42",
        "census_tract": "1164",
        "bin": "3089840",
        "bbl": "3040530001",
        "nta": "East New York"
    },
    {
        "store_name": "J R Grocery",
        "street_address": "944",
        "address": "Hegeman Avenue",
        "borough": "Brooklyn",
        "zip_code": "11208",
        "year_awarded": "2015",
        "program_wave": "2",
        "latitude": "40.665825",
        "longitude": "-73.877941",
        "community_board": "5",
        "council_district": "42",
        "census_tract": "1116",
        "bin": "3097609",
        "bbl": "3043390010",
        "nta": "East New York"
    },
    {
        "store_name": "J.T. Deli Grocery",
        "street_address": "1145",
        "address": "Glenmore Avenue",
        "borough": "Brooklyn",
        "zip_code": "11208",
        "year_awarded": "2015",
        "program_wave": "2",
        "latitude": "40.677497",
        "longitude": "-73.866563",
        "community_board": "5",
        "council_district": "37",
        "census_tract": "1188",
        "bin": "3094418",
        "bbl": "3042030001",
        "nta": "Cypress Hills-City Line"
    },
    {
        "store_name": "Los Chamona Deli Grocery",
        "street_address": "576",
        "address": "Ridgewood Avenue",
        "borough": "Brooklyn",
        "zip_code": "11208",
        "year_awarded": "2015",
        "program_wave": "2",
        "latitude": "40.686622",
        "longitude": "-73.867839",
        "community_board": "5",
        "council_district": "37",
        "census_tract": "1184",
        "bin": "3092546",
        "bbl": "3041360023",
        "nta": "Cypress Hills-City Line"
    },
    {
        "store_name": "Luna Grocery",
        "street_address": "1082",
        "address": "Hegeman Avenue",
        "borough": "Brooklyn",
        "zip_code": "11208",
        "year_awarded": "2015",
        "program_wave": "2",
        "latitude": "40.667838",
        "longitude": "-73.873244",
        "community_board": "5",
        "council_district": "42",
        "census_tract": "1116",
        "nta": "East New York"
    },
    {
        "store_name": "MACO Food Corp.",
        "street_address": "1018",
        "address": "Belmont Avenue",
        "borough": "Brooklyn",
        "zip_code": "11208",
        "year_awarded": "2015",
        "program_wave": "2",
        "latitude": "40.674146",
        "longitude": "-73.871458",
        "community_board": "5",
        "council_district": "42",
        "census_tract": "1196",
        "bin": "3095428",
        "bbl": "3042500021",
        "nta": "East New York"
    },
    {
        "store_name": "Melendez Deli Grocery",
        "street_address": "145",
        "address": "Euclid Avenue",
        "borough": "Brooklyn",
        "zip_code": "11208",
        "year_awarded": "2015",
        "program_wave": "2",
        "latitude": "40.685225",
        "longitude": "-73.874621",
        "community_board": "5",
        "council_district": "37",
        "census_tract": "117602",
        "bin": "3091605",
        "bbl": "3041170001",
        "nta": "Cypress Hills-City Line"
    },
    {
        "store_name": "Mike's Grocery Corp.",
        "street_address": "1268",
        "address": "Sutter Avenue",
        "borough": "Brooklyn",
        "zip_code": "11208",
        "year_awarded": "2015",
        "program_wave": "2",
        "latitude": "40.672872",
        "longitude": "-73.871161",
        "community_board": "5",
        "council_district": "42",
        "census_tract": "1208",
        "bin": "3095683",
        "bbl": "3042660021",
        "nta": "East New York"
    },
    {
        "store_name": "My Neighborhood Grocery",
        "street_address": "385",
        "address": "Chestnut Street",
        "borough": "Brooklyn",
        "zip_code": "11208",
        "year_awarded": "2015",
        "program_wave": "2",
        "latitude": "40.677517",
        "longitude": "-73.873983",
        "community_board": "5",
        "council_district": "37",
        "census_tract": "1196",
        "bin": "3094276",
        "bbl": "3041930012",
        "nta": "East New York"
    },
    {
        "store_name": "New Way Grocery",
        "street_address": "145",
        "address": "Ridgewood Avenue",
        "borough": "Brooklyn",
        "zip_code": "11208",
        "year_awarded": "2015",
        "program_wave": "2",
        "latitude": "40.68303",
        "longitude": "-73.883368",
        "community_board": "5",
        "council_district": "37",
        "census_tract": "117202",
        "bin": "3336135",
        "bbl": "3039110059",
        "nta": "Cypress Hills-City Line"
    },
    {
        "store_name": "Reyes & G Mini Market",
        "street_address": "120",
        "address": "Autumn Avenue",
        "borough": "Brooklyn",
        "zip_code": "11208",
        "year_awarded": "2015",
        "program_wave": "2",
        "latitude": "40.687414",
        "longitude": "-73.871065",
        "community_board": "5",
        "council_district": "37",
        "census_tract": "118201",
        "bin": "3091802",
        "bbl": "3041200057",
        "nta": "Cypress Hills-City Line"
    },
    {
        "store_name": "Sutter Grocery",
        "street_address": "978",
        "address": "Sutter Avenue",
        "borough": "Brooklyn",
        "zip_code": "11208",
        "year_awarded": "2015",
        "program_wave": "2",
        "latitude": "40.671237",
        "longitude": "-73.882578",
        "community_board": "5",
        "council_district": "42",
        "census_tract": "1164",
        "bin": "3089793",
        "bbl": "3040500017",
        "nta": "East New York"
    },
    {
        "store_name": "1879 Deli Carter Corp",
        "street_address": "1879",
        "address": "Carter Avenue",
        "borough": "Bronx",
        "zip_code": "10457",
        "year_awarded": "2015",
        "program_wave": "3",
        "latitude": "40.847345",
        "longitude": "-73.901904",
        "community_board": "5",
        "council_district": "15",
        "census_tract": "231",
        "bin": "2009377",
        "bbl": "2028920039",
        "nta": "Mount Hope"
    },
    {
        "store_name": "Anthony's Place Deli Grocery",
        "street_address": "306",
        "address": "East 178 Street",
        "borough": "Bronx",
        "zip_code": "10457",
        "year_awarded": "2015",
        "program_wave": "3",
        "latitude": "40.849999",
        "longitude": "-73.902497",
        "community_board": "5",
        "council_district": "15",
        "census_tract": "381",
        "bin": "2007766",
        "bbl": "2028140029",
        "nta": "Mount Hope"
    },
    {
        "store_name": "Aurora Deli Grocery",
        "street_address": "150",
        "address": "East 174 STREET",
        "borough": "Bronx",
        "zip_code": "10457",
        "year_awarded": "2015",
        "program_wave": "3",
        "latitude": "40.844842",
        "longitude": "-73.909679",
        "community_board": "4",
        "council_district": "15",
        "census_tract": "22703",
        "bin": "2007873",
        "bbl": "2028240051",
        "nta": "Mount Hope"
    },
    {
        "store_name": "C & T Deli Grocery",
        "street_address": "2275",
        "address": "Washington Avenue",
        "borough": "Bronx",
        "zip_code": "10457",
        "year_awarded": "2015",
        "program_wave": "3",
        "latitude": "40.855028",
        "longitude": "-73.893336",
        "community_board": "6",
        "council_district": "15",
        "census_tract": "385",
        "bin": "2011339",
        "bbl": "2030380027",
        "nta": "Claremont-Bathgate"
    },
    {
        "store_name": "Concourse Food Plaza",
        "street_address": "2096",
        "address": "Grand Concourse",
        "borough": "Bronx",
        "zip_code": "10457",
        "year_awarded": "2015",
        "program_wave": "3",
        "latitude": "40.854042",
        "longitude": "-73.902295",
        "community_board": "5",
        "council_district": "15",
        "census_tract": "23502",
        "bin": "2013681",
        "bbl": "2031560102",
        "nta": "Mount Hope"
    },
    {
        "store_name": "C-Town",
        "street_address": "229",
        "address": "East Tremont Avenue",
        "borough": "Bronx",
        "zip_code": "10457",
        "year_awarded": "2015",
        "program_wave": "3",
        "latitude": "40.848997",
        "longitude": "-73.904772",
        "community_board": "5",
        "council_district": "15",
        "census_tract": "23502",
        "bin": "2007719",
        "bbl": "2028090051",
        "nta": "Mount Hope"
    },
    {
        "store_name": "C-Town",
        "street_address": "309",
        "address": "East Burnside Avenue",
        "borough": "Bronx",
        "zip_code": "10457",
        "year_awarded": "2015",
        "program_wave": "3",
        "latitude": "40.850588",
        "longitude": "-73.901133",
        "community_board": "5",
        "council_district": "15",
        "census_tract": "381",
        "bin": "2013524",
        "bbl": "2031490068",
        "nta": "Mount Hope"
    },
    {
        "store_name": "Deli Grocery",
        "street_address": "2236",
        "address": "Grand Concourse",
        "borough": "Bronx",
        "zip_code": "10457",
        "year_awarded": "2015",
        "program_wave": "3",
        "latitude": "40.856256",
        "longitude": "-73.90064",
        "community_board": "5",
        "council_district": "15",
        "census_tract": "38301",
        "bin": "2013718",
        "bbl": "2031580001",
        "nta": "Fordham South"
    },
    {
        "store_name": "El Abanico Deli Grocery Corp.",
        "street_address": "214",
        "address": "East 180 Street",
        "borough": "Bronx",
        "zip_code": "10457",
        "year_awarded": "2015",
        "program_wave": "3",
        "latitude": "40.853232",
        "longitude": "-73.901971",
        "community_board": "5",
        "council_district": "15",
        "census_tract": "23502",
        "bin": "2013632",
        "bbl": "2031560018",
        "nta": "Mount Hope"
    },
    {
        "store_name": "Fresh Food Deli Grocery",
        "street_address": "2179",
        "address": "Washington Avenue",
        "borough": "Bronx",
        "zip_code": "10457",
        "year_awarded": "2015",
        "program_wave": "3",
        "latitude": "40.853505",
        "longitude": "-73.89442",
        "community_board": "6",
        "council_district": "15",
        "census_tract": "395",
        "bin": "2011324",
        "bbl": "2030370077",
        "nta": "Claremont-Bathgate"
    },
    {
        "store_name": "J.J.N. Corp Deli Grocery",
        "street_address": "1512",
        "address": "Washington Avenue",
        "borough": "Bronx",
        "zip_code": "10457",
        "year_awarded": "2015",
        "program_wave": "3",
        "latitude": "40.837956",
        "longitude": "-73.90315",
        "community_board": "3",
        "council_district": "16",
        "census_tract": "169",
        "bin": "2009543",
        "bbl": "2029120001",
        "nta": "Claremont-Bathgate"
    },
    {
        "store_name": "Jade Food Center",
        "street_address": "3822",
        "address": "3rd AVENUE",
        "borough": "Bronx",
        "zip_code": "10457",
        "year_awarded": "2015",
        "program_wave": "3",
        "latitude": "40.837875",
        "longitude": "-73.901412",
        "community_board": "3",
        "council_district": "16",
        "census_tract": "169",
        "bin": "2009644",
        "bbl": "2029280012",
        "nta": "Claremont-Bathgate"
    },
    {
        "store_name": "Los Primos Grocery",
        "street_address": "1965",
        "address": "Webster Avenue",
        "borough": "Bronx",
        "zip_code": "10457",
        "year_awarded": "2015",
        "program_wave": "3",
        "latitude": "40.849462",
        "longitude": "-73.899949",
        "community_board": "5",
        "council_district": "15",
        "census_tract": "379",
        "bin": "2013301",
        "bbl": "2031420094",
        "nta": "Mount Hope"
    },
    {
        "store_name": "Los Primos Grocery",
        "street_address": "1798",
        "address": "Crotona Avenue",
        "borough": "Bronx",
        "zip_code": "10457",
        "year_awarded": "2015",
        "program_wave": "3",
        "latitude": "40.842792",
        "longitude": "-73.893526",
        "community_board": "6",
        "council_district": "17",
        "census_tract": "36902",
        "bin": "2009916",
        "bbl": "2029480001",
        "nta": "East Tremont"
    },
    {
        "store_name": "Mills Grocery",
        "street_address": "1570",
        "address": "Bathgate Avenue",
        "borough": "Bronx",
        "zip_code": "10457",
        "year_awarded": "2015",
        "program_wave": "3",
        "latitude": "40.838762",
        "longitude": "-73.901563",
        "community_board": "3",
        "council_district": "16",
        "census_tract": "167",
        "bin": "2009581",
        "bbl": "2029190001",
        "nta": "Claremont-Bathgate"
    },
    {
        "store_name": "Naranjal Grocery",
        "street_address": "200",
        "address": "East Tremont Avenue",
        "borough": "Bronx",
        "zip_code": "10457",
        "year_awarded": "2015",
        "program_wave": "3",
        "latitude": "40.84911",
        "longitude": "-73.905415",
        "community_board": "5",
        "council_district": "15",
        "census_tract": "23302",
        "bin": "2007593",
        "bbl": "2028040005",
        "nta": "Mount Hope"
    },
    {
        "store_name": "Omale New York Grocery",
        "street_address": "2172",
        "address": "Crotona Avenue",
        "borough": "Bronx",
        "zip_code": "10457",
        "year_awarded": "2015",
        "program_wave": "3",
        "latitude": "40.850097",
        "longitude": "-73.886683",
        "community_board": "6",
        "council_district": "15",
        "census_tract": "371",
        "bin": "2012768",
        "bbl": "2030980025",
        "nta": "East Tremont"
    },
    {
        "store_name": "Vasquez Deli Grocery",
        "street_address": "1959",
        "address": "Clinton Avenue",
        "borough": "Bronx",
        "zip_code": "10457",
        "year_awarded": "2015",
        "program_wave": "3",
        "latitude": "40.845028",
        "longitude": "-73.890002",
        "community_board": "6",
        "council_district": "17",
        "census_tract": "371",
        "bin": "2012627",
        "bbl": "2030920044",
        "nta": "East Tremont"
    },
    {
        "store_name": "Webster Food Corp",
        "street_address": "2031",
        "address": "Webster Avenue",
        "borough": "Bronx",
        "zip_code": "10457",
        "year_awarded": "2015",
        "program_wave": "3",
        "latitude": "40.85091",
        "longitude": "-73.899032",
        "community_board": "5",
        "council_district": "15",
        "census_tract": "379",
        "bin": "2013300",
        "bbl": "2031420074",
        "nta": "Mount Hope"
    },
    {
        "store_name": "Almontaser Enterprises LLC",
        "street_address": "2792",
        "address": "Fulton Street",
        "borough": "Brooklyn",
        "zip_code": "11207",
        "year_awarded": "2016",
        "program_wave": "3",
        "latitude": "40.678053",
        "longitude": "-73.891478",
        "community_board": "5",
        "council_district": "37",
        "census_tract": "1198",
        "bin": "3397940",
        "bbl": "3039470017",
        "nta": "East New York"
    },
    {
        "store_name": "Habibi Gourmet Deli",
        "street_address": "2761",
        "address": "Fulton Street",
        "borough": "Brooklyn",
        "zip_code": "11207",
        "year_awarded": "2016",
        "program_wave": "3",
        "latitude": "40.677879",
        "longitude": "-73.892772",
        "community_board": "5",
        "council_district": "37",
        "census_tract": "1146",
        "bin": "3083215",
        "bbl": "3036640045",
        "nta": "Cypress Hills-City Line"
    },
    {
        "store_name": "J & K Grocery",
        "street_address": "2737",
        "address": "Fulton Street",
        "borough": "Brooklyn",
        "zip_code": "11207",
        "year_awarded": "2016",
        "program_wave": "3",
        "latitude": "40.677742",
        "longitude": "-73.893678",
        "community_board": "5",
        "council_district": "37",
        "census_tract": "1146",
        "bin": "3083171",
        "bbl": "3036630042",
        "nta": "Cypress Hills-City Line"
    },
    {
        "store_name": "La Vega Grocery",
        "street_address": "2772",
        "address": "Fulton Street",
        "borough": "Brooklyn",
        "zip_code": "11207",
        "year_awarded": "2016",
        "program_wave": "3",
        "latitude": "40.677936",
        "longitude": "-73.892268",
        "community_board": "5",
        "council_district": "37",
        "census_tract": "1198",
        "bin": "3087748",
        "bbl": "3039460014",
        "nta": "East New York"
    },
    {
        "store_name": "Marien Groceries Corp.",
        "street_address": "99",
        "address": "Jamaica Avenue",
        "borough": "Brooklyn",
        "zip_code": "11207",
        "year_awarded": "2016",
        "program_wave": "3",
        "latitude": "40.678656",
        "longitude": "-73.896416",
        "community_board": "5",
        "council_district": "37",
        "census_tract": "114201",
        "bin": "3080596",
        "bbl": "3034860007",
        "nta": "Cypress Hills-City Line"
    },
    {
        "store_name": "One Apple Grocery Store",
        "street_address": "609",
        "address": "Wilson Avenue",
        "borough": "Brooklyn",
        "zip_code": "11207",
        "year_awarded": "2016",
        "program_wave": "3",
        "latitude": "40.69016",
        "longitude": "-73.907173",
        "community_board": "4",
        "council_district": "37",
        "census_tract": "409",
        "bin": "3079530",
        "bbl": "3034300008",
        "nta": "Bushwick North"
    },
    {
        "store_name": "Plaza Meat Market",
        "street_address": "100",
        "address": "Cooper Street",
        "borough": "Brooklyn",
        "zip_code": "11207",
        "year_awarded": "2016",
        "program_wave": "3",
        "latitude": "40.68619",
        "longitude": "-73.908898",
        "community_board": "4",
        "council_district": "37",
        "census_tract": "403",
        "bin": "3079921",
        "bbl": "3034390035",
        "nta": "Bushwick South"
    },
    {
        "store_name": "Shorty Meat Farm",
        "street_address": "2949",
        "address": "Fulton Street",
        "borough": "Brooklyn",
        "zip_code": "11207",
        "year_awarded": "2016",
        "program_wave": "3",
        "latitude": "40.679549",
        "longitude": "-73.885916",
        "community_board": "5",
        "council_district": "37",
        "census_tract": "117201",
        "bin": "3339498",
        "bbl": "3039390027",
        "nta": "Cypress Hills-City Line"
    },
    {
        "store_name": "Sunny Supermarket",
        "street_address": "200",
        "address": "Jamaica Avenue",
        "borough": "Brooklyn",
        "zip_code": "11207",
        "year_awarded": "2016",
        "program_wave": "3",
        "latitude": "40.68039",
        "longitude": "-73.892682",
        "community_board": "5",
        "council_district": "37",
        "census_tract": "1146",
        "bin": "3342632",
        "bbl": "3039170007",
        "nta": "Cypress Hills-City Line"
    },
    {
        "store_name": "VLT Mini Market Inc.",
        "street_address": "2837",
        "address": "Fulton Street",
        "borough": "Brooklyn",
        "zip_code": "11207",
        "year_awarded": "2016",
        "program_wave": "3",
        "latitude": "40.678348",
        "longitude": "-73.889747",
        "community_board": "5",
        "council_district": "37",
        "census_tract": "1146",
        "bin": "3087552",
        "bbl": "3039350052",
        "nta": "Cypress Hills-City Line"
    },
    {
        "store_name": "Comidas Dominicanas Capellan Deli",
        "street_address": "1626",
        "address": "Park Avenue",
        "borough": "New York",
        "zip_code": "10029",
        "year_awarded": "2015",
        "program_wave": "3",
        "latitude": "40.798843",
        "longitude": "-73.943587",
        "community_board": "11",
        "council_district": "8",
        "census_tract": "184",
        "bin": "1051645",
        "bbl": "1016210035",
        "nta": "East Harlem North"
    },
    {
        "store_name": "Deli Superette",
        "street_address": "1858",
        "address": "Lexington Avenue",
        "borough": "New York",
        "zip_code": "10029",
        "year_awarded": "2015",
        "program_wave": "3",
        "latitude": "40.798118",
        "longitude": "-73.942006",
        "community_board": "11",
        "council_district": "8",
        "census_tract": "182",
        "bin": "1052235",
        "bbl": "1016430015",
        "nta": "East Harlem North"
    },
    {
        "store_name": "Puchito Grocery",
        "street_address": "2122",
        "address": "2nd Avenue",
        "borough": "New York",
        "zip_code": "10029",
        "year_awarded": "2015",
        "program_wave": "3",
        "latitude": "40.792642",
        "longitude": "-73.940956",
        "community_board": "11",
        "council_district": "8",
        "census_tract": "180",
        "bin": "1052825",
        "bbl": "1016810001",
        "nta": "East Harlem North"
    },
    {
        "store_name": "Annabelle Deli",
        "street_address": "2121",
        "address": "2nd Avenue",
        "borough": "New York",
        "zip_code": "10029",
        "year_awarded": "2015",
        "program_wave": "3",
        "latitude": "40.792729",
        "longitude": "-73.940913",
        "community_board": "11",
        "council_district": "8",
        "census_tract": "180",
        "bin": "1052437",
        "bbl": "1016590021",
        "nta": "East Harlem North"
    },
    {
        "store_name": "Juice Bar Deli",
        "street_address": "308",
        "address": "East 116th Street",
        "borough": "New York",
        "zip_code": "10029",
        "year_awarded": "2015",
        "program_wave": "3",
        "latitude": "40.796768",
        "longitude": "-73.937236",
        "community_board": "11",
        "council_district": "8",
        "census_tract": "188",
        "bin": "1052929",
        "bbl": "1016870046",
        "nta": "East Harlem North"
    },
    {
        "store_name": "AA Deli and Grocery",
        "street_address": "2100",
        "address": "2nd Avenue",
        "borough": "New York",
        "zip_code": "10029",
        "year_awarded": "2015",
        "program_wave": "3",
        "latitude": "40.792074",
        "longitude": "-73.941372",
        "community_board": "11",
        "council_district": "8",
        "census_tract": "170",
        "bin": "1052801",
        "bbl": "1016800001",
        "nta": "East Harlem South"
    },
    {
        "store_name": "Mini Market Corps",
        "street_address": "1690",
        "address": "Lexington Avenue",
        "borough": "New York",
        "zip_code": "10029",
        "year_awarded": "2015",
        "program_wave": "3",
        "latitude": "40.79235",
        "longitude": "-73.946215",
        "community_board": "11",
        "council_district": "8",
        "census_tract": "172",
        "bin": "1052019",
        "bbl": "1016340015",
        "nta": "East Harlem South"
    },
    {
        "store_name": "Madison Deli and Grocery",
        "street_address": "1550",
        "address": "Madison Avenue",
        "borough": "New York",
        "zip_code": "10029",
        "year_awarded": "2015",
        "program_wave": "3",
        "latitude": "40.792753",
        "longitude": "-73.950144",
        "community_board": "11",
        "council_district": "8",
        "census_tract": "168",
        "bin": "1051507",
        "bbl": "1016100058",
        "nta": "East Harlem South"
    },
    {
        "store_name": "El Tepeyac Grocery",
        "street_address": "1621",
        "address": "Lexington Avenue",
        "borough": "New York",
        "zip_code": "10029",
        "year_awarded": "2015",
        "program_wave": "3",
        "latitude": "40.789922",
        "longitude": "-73.947961",
        "community_board": "11",
        "council_district": "8",
        "census_tract": "166",
        "bin": "1051884",
        "bbl": "1016300021",
        "nta": "East Harlem South"
    },
    {
        "store_name": "Mi Mexico Mini Market",
        "street_address": "172",
        "address": "East 104th Street",
        "borough": "New York",
        "zip_code": "10029",
        "year_awarded": "2015",
        "program_wave": "3",
        "latitude": "40.790605",
        "longitude": "-73.946469",
        "community_board": "11",
        "council_district": "8",
        "census_tract": "166",
        "bin": "1051933",
        "bbl": "1016310045",
        "nta": "East Harlem South"
    },
    {
        "store_name": "East Side Gourmet Deli",
        "street_address": "1863",
        "address": "3rd Avenue",
        "borough": "New York",
        "zip_code": "10029",
        "year_awarded": "2015",
        "program_wave": "3",
        "latitude": "40.789515",
        "longitude": "-73.946163",
        "community_board": "11",
        "council_district": "8",
        "census_tract": "164",
        "nta": "East Harlem South"
    },
    {
        "store_name": "2015 Food Deli",
        "street_address": "2015",
        "address": "1st Avenue",
        "borough": "New York",
        "zip_code": "10029",
        "year_awarded": "2015",
        "program_wave": "3",
        "latitude": "40.788176",
        "longitude": "-73.941133",
        "community_board": "11",
        "council_district": "8",
        "census_tract": "164",
        "bin": "1052687",
        "bbl": "1016750029",
        "nta": "East Harlem South"
    },
    {
        "store_name": "JJ Food\u00a0 Market",
        "street_address": "153",
        "address": "East 99th Street",
        "borough": "New York",
        "zip_code": "10029",
        "year_awarded": "2015",
        "program_wave": "3",
        "latitude": "40.787686",
        "longitude": "-73.94923",
        "community_board": "11",
        "council_district": "5",
        "census_tract": "166",
        "bin": "1051758",
        "bbl": "1016270023",
        "nta": "East Harlem South"
    },
    {
        "store_name": "Deli Mini Mart",
        "street_address": "339",
        "address": "East 115th Street",
        "borough": "New York",
        "zip_code": "10029",
        "year_awarded": "2015",
        "program_wave": "3",
        "latitude": "40.79565",
        "longitude": "-73.936703",
        "community_board": "11",
        "council_district": "8",
        "census_tract": "188",
        "bin": "1052907",
        "bbl": "1016870021",
        "nta": "East Harlem North"
    },
    {
        "store_name": "Cherry Deli Gourmet",
        "street_address": "1575",
        "address": "Lexington Avenue",
        "borough": "New York",
        "zip_code": "10029",
        "year_awarded": "2015",
        "program_wave": "3",
        "latitude": "40.78874",
        "longitude": "-73.948825",
        "community_board": "11",
        "council_district": "8",
        "census_tract": "166",
        "bin": "1051813",
        "bbl": "1016280050",
        "nta": "East Harlem South"
    },
    {
        "store_name": "Cherry Valley Market",
        "street_address": "309",
        "address": "East 115th Street",
        "borough": "New York",
        "zip_code": "10029",
        "year_awarded": "2015",
        "program_wave": "3",
        "latitude": "40.796167",
        "longitude": "-73.937941",
        "community_board": "11",
        "council_district": "8",
        "census_tract": "188",
        "bin": "1052901",
        "bbl": "1016870005",
        "nta": "East Harlem North"
    },
    {
        "store_name": "Super Fi Emporium",
        "street_address": "1635",
        "address": "Lexington Avenue",
        "borough": "New York",
        "zip_code": "10029",
        "year_awarded": "2015",
        "program_wave": "3",
        "latitude": "40.790501",
        "longitude": "-73.947538",
        "community_board": "11",
        "council_district": "8",
        "census_tract": "166",
        "bin": "1089312",
        "bbl": "1016317501",
        "nta": "East Harlem South"
    },
    {
        "store_name": "NYC Fresh Market",
        "street_address": "1656",
        "address": "Madison Avenue",
        "borough": "New York",
        "zip_code": "10029",
        "year_awarded": "2015",
        "program_wave": "3",
        "latitude": "40.796358",
        "longitude": "-73.947512",
        "community_board": "11",
        "council_district": "9",
        "census_tract": "17402",
        "bin": "1085254",
        "bbl": "1016160001",
        "nta": "East Harlem South"
    },
    {
        "store_name": "Fine Fare",
        "street_address": "1718",
        "address": "Madison Avenue",
        "borough": "New York",
        "zip_code": "10029",
        "year_awarded": "2015",
        "program_wave": "3",
        "latitude": "40.798265",
        "longitude": "-73.94612",
        "community_board": "11",
        "council_district": "9",
        "census_tract": "184",
        "bin": "1080504",
        "bbl": "1016180001",
        "nta": "East Harlem North"
    },
    {
        "store_name": "City Fresh Market",
        "street_address": "235",
        "address": "East 106th Street",
        "borough": "New York",
        "zip_code": "10029",
        "year_awarded": "2015",
        "program_wave": "3",
        "latitude": "40.791026",
        "longitude": "-73.943359",
        "community_board": "11",
        "council_district": "8",
        "census_tract": "170",
        "bin": "1084323",
        "bbl": "1016560001",
        "nta": "East Harlem South"
    },
    {
        "store_name": "1408\u00a0Deli & Grocery Corp.",
        "street_address": "1408",
        "address": "Fulton Avenue",
        "borough": "Bronx",
        "zip_code": "10456",
        "year_awarded": "2016",
        "program_wave": "4",
        "latitude": "40.834741",
        "longitude": "-73.901771",
        "community_board": "3",
        "council_district": "16",
        "census_tract": "149",
        "bin": "2009720",
        "bbl": "2029320015",
        "nta": "Morrisania-Melrose"
    },
    {
        "store_name": "2009 Melissa Deli Corp.",
        "street_address": "621",
        "address": "East 170th Street",
        "borough": "Bronx",
        "zip_code": "10456",
        "year_awarded": "2016",
        "program_wave": "4",
        "latitude": "40.834199",
        "longitude": "-73.900167",
        "community_board": "3",
        "council_district": "16",
        "census_tract": "149",
        "bin": "2009800",
        "bbl": "2029360001",
        "nta": "Morrisania-Melrose"
    },
    {
        "store_name": "99 Cent Deli Square",
        "street_address": "3754",
        "address": "3rd AVE",
        "borough": "Bronx",
        "zip_code": "10456",
        "year_awarded": "2016",
        "program_wave": "4",
        "latitude": "40.836328",
        "longitude": "-73.902603",
        "community_board": "3",
        "council_district": "16",
        "census_tract": "169",
        "bin": "2009632",
        "bbl": "2029270007",
        "nta": "Claremont-Bathgate"
    },
    {
        "store_name": "Associated Supermarket",
        "street_address": "724",
        "address": "East 161st Street",
        "borough": "Bronx",
        "zip_code": "10456",
        "year_awarded": "2016",
        "program_wave": "4",
        "latitude": "40.821432",
        "longitude": "-73.905183",
        "community_board": "1",
        "council_district": "17",
        "census_tract": "77",
        "bin": "2098384",
        "bbl": "2026470045",
        "nta": "Melrose South-Mott Haven North"
    },
    {
        "store_name": "Baraka African Market",
        "street_address": "1345",
        "address": "Webster Avenue",
        "borough": "Bronx",
        "zip_code": "10456",
        "year_awarded": "2016",
        "program_wave": "4",
        "latitude": "40.835698",
        "longitude": "-73.907714",
        "community_board": "4",
        "council_district": "16",
        "census_tract": "17702",
        "bin": "2009309",
        "bbl": "2028870165",
        "nta": "East Concourse-Concourse Village"
    },
    {
        "store_name": "College Ave.  Deli and Market Inc.",
        "street_address": "288",
        "address": "East 168th Street",
        "borough": "Bronx",
        "zip_code": "10456",
        "year_awarded": "2016",
        "program_wave": "4",
        "latitude": "40.833333",
        "longitude": "-73.912802",
        "community_board": "4",
        "council_district": "16",
        "census_tract": "175",
        "bin": "2002293",
        "bbl": "2024350015",
        "nta": "East Concourse-Concourse Village"
    },
    {
        "store_name": "First Food Market",
        "street_address": "3706",
        "address": "3rd Avenue",
        "borough": "Bronx",
        "zip_code": "10456",
        "year_awarded": "2016",
        "program_wave": "4",
        "latitude": "40.835694",
        "longitude": "-73.903052",
        "community_board": "3",
        "council_district": "16",
        "census_tract": "14702",
        "bin": "2009624",
        "bbl": "2029260002",
        "nta": "Claremont-Bathgate"
    },
    {
        "store_name": "Food Bazaar",
        "street_address": "535",
        "address": "East 170th Street",
        "borough": "Bronx",
        "zip_code": "10456",
        "year_awarded": "2016",
        "program_wave": "4",
        "latitude": "40.834931",
        "longitude": "-73.903144",
        "community_board": "3",
        "council_district": "16",
        "census_tract": "14702",
        "bin": "2009624",
        "bbl": "2029260002",
        "nta": "Claremont-Bathgate"
    },
    {
        "store_name": "Key Food Supermarket.",
        "street_address": "340",
        "address": "Pennsylvania Avenue",
        "borough": "Bronx",
        "zip_code": "10456",
        "year_awarded": "2016",
        "program_wave": "4"
    },
    {
        "store_name": "La Hermadad Supermarket Inc.",
        "street_address": "193",
        "address": "McClellan Street",
        "borough": "Bronx",
        "zip_code": "10456",
        "year_awarded": "2016",
        "program_wave": "4",
        "latitude": "40.832698",
        "longitude": "-73.917847",
        "community_board": "4",
        "council_district": "16",
        "census_tract": "18102",
        "bin": "2002752",
        "bbl": "2024560181",
        "nta": "East Concourse-Concourse Village"
    },
    {
        "store_name": "M&G Food Corp.",
        "street_address": "391",
        "address": "East 167th Street",
        "borough": "Bronx",
        "zip_code": "10456",
        "year_awarded": "2016",
        "program_wave": "4",
        "latitude": "40.830848",
        "longitude": "-73.910854",
        "community_board": "4",
        "council_district": "16",
        "census_tract": "17701",
        "bin": "2002074",
        "bbl": "2024260048",
        "nta": "East Concourse-Concourse Village"
    },
    {
        "store_name": "Soumandji Meat Fish Market",
        "street_address": "381",
        "address": "East 169th Street",
        "borough": "Bronx",
        "zip_code": "10456",
        "year_awarded": "2016",
        "program_wave": "4",
        "latitude": "40.834317",
        "longitude": "-73.909953",
        "community_board": "4",
        "council_district": "16",
        "census_tract": "17702",
        "bin": "2007151",
        "bbl": "2027820147",
        "nta": "East Concourse-Concourse Village"
    },
    {
        "store_name": "Z&F Deli Grocery",
        "street_address": "3321",
        "address": "Third Avenue",
        "borough": "Bronx",
        "zip_code": "10456",
        "year_awarded": "2016",
        "program_wave": "4",
        "latitude": "40.826215",
        "longitude": "-73.907857",
        "community_board": "3",
        "council_district": "17",
        "census_tract": "185",
        "bin": "2116712",
        "bbl": "2023697502",
        "nta": "Morrisania-Melrose"
    },
    {
        "store_name": "Angelic Grocery and Deli Corp",
        "street_address": "305",
        "address": "Jerome St",
        "borough": "Brooklyn",
        "zip_code": "11207",
        "year_awarded": "2016",
        "program_wave": "4",
        "latitude": "40.67425",
        "longitude": "-73.886974",
        "community_board": "5",
        "council_district": "37",
        "census_tract": "1150",
        "bin": "3088849",
        "bbl": "3039980011",
        "nta": "East New York"
    },
    {
        "store_name": "Dama Food Market",
        "street_address": "2303",
        "address": "Pitkin Avenue",
        "borough": "Brooklyn",
        "zip_code": "11207",
        "year_awarded": "2016",
        "program_wave": "4",
        "latitude": "40.673169",
        "longitude": "-73.887315",
        "community_board": "5",
        "council_district": "37",
        "census_tract": "1150",
        "bin": "3088841",
        "bbl": "3039970034",
        "nta": "East New York"
    },
    {
        "store_name": "Danilo's Corp Deli Grocery",
        "street_address": "731",
        "address": "Schenck Avenue",
        "borough": "Brooklyn",
        "zip_code": "11207",
        "year_awarded": "2016",
        "program_wave": "4",
        "latitude": "40.662374",
        "longitude": "-73.884828",
        "community_board": "5",
        "council_district": "42",
        "census_tract": "1104",
        "bin": "3097519",
        "bbl": "3043310059",
        "nta": "East New York"
    },
    {
        "store_name": "George Deli & Grocery",
        "street_address": "710",
        "address": "Georgia Avenue",
        "borough": "Brooklyn",
        "zip_code": "11207",
        "year_awarded": "2016",
        "program_wave": "4",
        "latitude": "40.659602",
        "longitude": "-73.893566",
        "community_board": "5",
        "council_district": "42",
        "census_tract": "1130",
        "bin": "3402540",
        "bbl": "3042960039",
        "nta": "East New York (Pennsylvania Ave)"
    },
    {
        "store_name": "JLC Deli Grocery",
        "street_address": "653",
        "address": "Liberty Avenue",
        "borough": "Brooklyn",
        "zip_code": "11207",
        "year_awarded": "2016",
        "program_wave": "4",
        "latitude": "40.676038",
        "longitude": "-73.885551",
        "community_board": "5",
        "council_district": "37",
        "census_tract": "1170",
        "bin": "3088356",
        "bbl": "3039680042",
        "nta": "East New York"
    },
    {
        "store_name": "Melissa Meat Market",
        "street_address": "772",
        "address": "Sutter Avenue",
        "borough": "Brooklyn",
        "zip_code": "11207",
        "year_awarded": "2016",
        "program_wave": "4",
        "latitude": "40.670122",
        "longitude": "-73.890085",
        "community_board": "5",
        "council_district": "42",
        "census_tract": "1160",
        "bin": "3089672",
        "bbl": "3040410027",
        "nta": "East New York"
    },
    {
        "store_name": "Quezada Deli Grocery",
        "street_address": "570",
        "address": "Van Siclen Avenue",
        "borough": "Brooklyn",
        "zip_code": "11207",
        "year_awarded": "2016",
        "program_wave": "4",
        "latitude": "40.66582",
        "longitude": "-73.888567",
        "community_board": "5",
        "council_district": "42",
        "census_tract": "1124",
        "bin": "3090357",
        "bbl": "3040730052",
        "nta": "East New York"
    },
    {
        "store_name": "Sajoma Deli Grocery",
        "street_address": "772",
        "address": "Miller Avenue",
        "borough": "Brooklyn",
        "zip_code": "11207",
        "year_awarded": "2016",
        "program_wave": "4",
        "latitude": "40.661971",
        "longitude": "-73.887788",
        "community_board": "5",
        "council_district": "42",
        "census_tract": "1122",
        "bin": "3096720",
        "bbl": "3043030037",
        "nta": "East New York (Pennsylvania Ave)"
    },
    {
        "store_name": "VA Grocery & Deli Corp  \n(Brother's Mini Market)",
        "street_address": "207",
        "address": "Hull Street",
        "borough": "Brooklyn",
        "zip_code": "11207",
        "year_awarded": "2016",
        "program_wave": "4",
        "latitude": "40.679876",
        "longitude": "-73.908009",
        "community_board": "16",
        "council_district": "37",
        "census_tract": "369",
        "bin": "3041784",
        "bbl": "3015350057",
        "nta": "Ocean Hill"
    },
    {
        "store_name": "Wild Olive Market",
        "street_address": "10",
        "address": "East 125th Street",
        "borough": "New York",
        "zip_code": "10035",
        "year_awarded": "2016",
        "program_wave": "4",
        "latitude": "40.806215",
        "longitude": "-73.941807",
        "community_board": "11",
        "council_district": "9",
        "census_tract": "198",
        "bin": "1085291",
        "bbl": "1017490066",
        "nta": "East Harlem North"
    },
    {
        "store_name": "Juan Calito Meat Corp./City Fresh",
        "street_address": "2212",
        "address": "3rd Avenue",
        "borough": "New York",
        "zip_code": "10035",
        "year_awarded": "2016",
        "program_wave": "4",
        "latitude": "40.80083",
        "longitude": "-73.937926",
        "community_board": "11",
        "council_district": "8",
        "census_tract": "196",
        "bin": "1087272",
        "bbl": "1017697501",
        "nta": "East Harlem North"
    },
    {
        "store_name": "Prince Deli Grocery",
        "street_address": "1461",
        "address": "5th Avenue",
        "borough": "New York",
        "zip_code": "10035",
        "year_awarded": "2016",
        "program_wave": "4",
        "latitude": "40.80211",
        "longitude": "-73.945394",
        "community_board": "11",
        "council_district": "9",
        "census_tract": "184",
        "bin": "1053946",
        "bbl": "1017450001",
        "nta": "East Harlem North"
    },
    {
        "store_name": "TSM 2ND Ave Gourmet Deli",
        "street_address": "248",
        "address": "East 119th street",
        "borough": "New York",
        "zip_code": "10035",
        "year_awarded": "2016",
        "program_wave": "4",
        "latitude": "40.799408",
        "longitude": "-73.937479",
        "community_board": "11",
        "council_district": "8",
        "census_tract": "188",
        "bin": "1054534",
        "bbl": "1017830028",
        "nta": "East Harlem North"
    },
    {
        "store_name": "Fine Fare Supermarket",
        "street_address": "2330",
        "address": "1st Avenue",
        "borough": "New York",
        "zip_code": "10035",
        "year_awarded": "2016",
        "program_wave": "4",
        "latitude": "40.798278",
        "longitude": "-73.933731",
        "community_board": "11",
        "council_district": "8",
        "census_tract": "192",
        "bin": "1054882",
        "bbl": "1018070048",
        "nta": "East Harlem North"
    },
    {
        "store_name": "Viva Deli",
        "street_address": "2330",
        "address": "1st Avenue",
        "borough": "New York",
        "zip_code": "10035",
        "year_awarded": "2016",
        "program_wave": "4",
        "latitude": "40.798278",
        "longitude": "-73.933731",
        "community_board": "11",
        "council_district": "8",
        "census_tract": "192",
        "bin": "1054882",
        "bbl": "1018070048",
        "nta": "East Harlem North"
    },
    {
        "store_name": "Abdur Sami",
        "street_address": "2262",
        "address": "2nd Avenue",
        "borough": "New York",
        "zip_code": "10035",
        "year_awarded": "2016",
        "program_wave": "4",
        "latitude": "40.797155",
        "longitude": "-73.937651",
        "community_board": "11",
        "council_district": "8",
        "census_tract": "188",
        "bin": "1052946",
        "bbl": "1016880001",
        "nta": "East Harlem North"
    },
    {
        "store_name": "Mis Hijos",
        "street_address": "2401",
        "address": "2nd Avenue",
        "borough": "New York",
        "zip_code": "10035",
        "year_awarded": "2016",
        "program_wave": "4",
        "latitude": "40.801484",
        "longitude": "-73.934425",
        "community_board": "11",
        "council_district": "8",
        "census_tract": "194",
        "bin": "1054643",
        "bbl": "1017880022",
        "nta": "East Harlem North"
    },
    {
        "store_name": "Oasis Gourmet Deli",
        "street_address": "1966",
        "address": "Madison Avenue",
        "borough": "New York",
        "zip_code": "10035",
        "year_awarded": "2016",
        "program_wave": "4",
        "latitude": "40.806313",
        "longitude": "-73.94024",
        "community_board": "11",
        "council_district": "9",
        "census_tract": "198",
        "bin": "1054058",
        "bbl": "1017500056",
        "nta": "East Harlem North"
    },
    {
        "store_name": "Tasty Pick Deli & Grocery",
        "street_address": "1878",
        "address": "Lexington Avenue",
        "borough": "New York",
        "zip_code": "10035",
        "year_awarded": "2016",
        "program_wave": "4",
        "latitude": "40.799202",
        "longitude": "-73.94121",
        "community_board": "11",
        "council_district": "8",
        "census_tract": "182",
        "bin": "1052330",
        "bbl": "1016440156",
        "nta": "East Harlem North"
    },
    {
        "store_name": "K&O Deli Grocery",
        "street_address": "2288",
        "address": "2nd Avenue",
        "borough": "New York",
        "zip_code": "10035",
        "year_awarded": "2016",
        "program_wave": "4",
        "latitude": "40.797964",
        "longitude": "-73.937061",
        "community_board": "11",
        "council_district": "8",
        "census_tract": "188",
        "bin": "1052985",
        "bbl": "1016890004",
        "nta": "East Harlem North"
    },
    {
        "store_name": "Finest Food Corp",
        "street_address": "315",
        "address": "Pleasant Avenue",
        "borough": "New York",
        "zip_code": "10035",
        "year_awarded": "2016",
        "program_wave": "4",
        "latitude": "40.795527",
        "longitude": "-73.932824",
        "community_board": "11",
        "council_district": "8",
        "census_tract": "178",
        "bin": "1053088",
        "bbl": "1017100029",
        "nta": "East Harlem North"
    },
    {
        "store_name": "2001 GOURMET DELI",
        "street_address": "2001",
        "address": "CLINTON AVE",
        "borough": "Bronx",
        "zip_code": "10457",
        "year_awarded": "2017",
        "program_wave": "5",
        "latitude": "40.846375",
        "longitude": "-73.888858",
        "community_board": "6",
        "council_district": "17",
        "census_tract": "371",
        "bin": "2012682",
        "bbl": "2030950057",
        "nta": "East Tremont"
    },
    {
        "store_name": "347 CHABELY DELI GROCERY",
        "street_address": "347",
        "address": "E 173RD ST",
        "borough": "Bronx",
        "zip_code": "10457",
        "year_awarded": "2017",
        "program_wave": "5",
        "latitude": "40.843433",
        "longitude": "-73.905145",
        "community_board": "4",
        "council_district": "15",
        "census_tract": "22902",
        "bin": "2007331",
        "bbl": "2027900057",
        "nta": "Mount Hope"
    },
    {
        "store_name": "ALFONSOS DELI & GROCERY",
        "street_address": "2236",
        "address": "GRAND CONCOURSE",
        "borough": "Bronx",
        "zip_code": "10457",
        "year_awarded": "2017",
        "program_wave": "5",
        "latitude": "40.856256",
        "longitude": "-73.90064",
        "community_board": "5",
        "council_district": "15",
        "census_tract": "38301",
        "bin": "2013718",
        "bbl": "2031580001",
        "nta": "Fordham South"
    },
    {
        "store_name": "AMIGOS GROCERY",
        "street_address": "551",
        "address": "EAST 172ND ST",
        "borough": "Bronx",
        "zip_code": "10457",
        "year_awarded": "2017",
        "program_wave": "5",
        "latitude": "40.839504",
        "longitude": "-73.899545",
        "community_board": "3",
        "council_district": "16",
        "census_tract": "167",
        "bin": "2009658",
        "bbl": "2029290082",
        "nta": "Claremont-Bathgate"
    },
    {
        "store_name": "FELINO GROCERY",
        "street_address": "1836",
        "address": "ANTHONY AVE",
        "borough": "Bronx",
        "zip_code": "10457",
        "year_awarded": "2017",
        "program_wave": "5",
        "latitude": "40.847412",
        "longitude": "-73.903704",
        "community_board": "5",
        "council_district": "15",
        "census_tract": "23302",
        "bin": "2007579",
        "bbl": "2028030001",
        "nta": "Mount Hope"
    },
    {
        "store_name": "FELOMAR GROCERY STORE",
        "street_address": "154",
        "address": "E 175TH ST",
        "borough": "Bronx",
        "zip_code": "10457",
        "year_awarded": "2017",
        "program_wave": "5",
        "latitude": "40.846798",
        "longitude": "-73.908111",
        "community_board": "5",
        "council_district": "15",
        "census_tract": "22901",
        "bin": "2007424",
        "bbl": "2027960028",
        "nta": "Mount Hope"
    },
    {
        "store_name": "HABIBI DELI",
        "street_address": "2070",
        "address": "CLINTON AVE",
        "borough": "Bronx",
        "zip_code": "10457",
        "year_awarded": "2017",
        "program_wave": "5",
        "latitude": "40.847236",
        "longitude": "-73.888101",
        "community_board": "6",
        "council_district": "15",
        "census_tract": "371",
        "bin": "2012652",
        "bbl": "2030940014",
        "nta": "East Tremont"
    },
    {
        "store_name": "LOS PALMARITOS DELI GROCERY",
        "street_address": "2080",
        "address": "VALENTINE AVE",
        "borough": "Bronx",
        "zip_code": "10457",
        "year_awarded": "2017",
        "program_wave": "5",
        "latitude": "40.852753",
        "longitude": "-73.899897",
        "community_board": "5",
        "council_district": "15",
        "census_tract": "379",
        "bin": "2013341",
        "bbl": "2031440001",
        "nta": "Mount Hope"
    },
    {
        "store_name": "PAULINO GROCERY",
        "street_address": "4378",
        "address": "3RD AVE",
        "borough": "Bronx",
        "zip_code": "10457",
        "year_awarded": "2017",
        "program_wave": "5",
        "latitude": "40.850821",
        "longitude": "-73.893958",
        "community_board": "6",
        "council_district": "15",
        "census_tract": "37504",
        "bin": "2011850",
        "bbl": "2030620001",
        "nta": "East Tremont"
    },
    {
        "store_name": "SAER & JAMAL MARKET 2",
        "street_address": "563",
        "address": "E TREMONT AVE",
        "borough": "Bronx",
        "zip_code": "10457",
        "year_awarded": "2017",
        "program_wave": "5",
        "latitude": "40.846509",
        "longitude": "-73.894814",
        "community_board": "6",
        "council_district": "15",
        "census_tract": "37504",
        "bin": "2011828",
        "bbl": "2030600050",
        "nta": "East Tremont"
    },
    {
        "store_name": "CONCOURSE FOOD PLAZA",
        "street_address": "2096",
        "address": "GRAND CONCOURSE",
        "borough": "Bronx",
        "zip_code": "10457",
        "year_awarded": "2017",
        "program_wave": "5",
        "latitude": "40.854042",
        "longitude": "-73.902295",
        "community_board": "5",
        "council_district": "15",
        "census_tract": "23502",
        "bin": "2013681",
        "bbl": "2031560102",
        "nta": "Mount Hope"
    },
    {
        "store_name": "305 GROCERY DELI",
        "street_address": "305",
        "address": "EAST 181ST ST",
        "borough": "Bronx",
        "zip_code": "10457",
        "year_awarded": "2017",
        "program_wave": "5",
        "latitude": "40.854045",
        "longitude": "-73.899172",
        "community_board": "5",
        "council_district": "15",
        "census_tract": "379",
        "bin": "2013375",
        "bbl": "2031440045",
        "nta": "Mount Hope"
    },
    {
        "store_name": "551 REY FOOD",
        "street_address": "551",
        "address": "E 178TH ST",
        "borough": "Bronx",
        "zip_code": "10457",
        "year_awarded": "2017",
        "program_wave": "5",
        "latitude": "40.847528",
        "longitude": "-73.894599",
        "community_board": "6",
        "council_district": "15",
        "census_tract": "37504",
        "bin": "2011842",
        "bbl": "2030610036",
        "nta": "East Tremont"
    },
    {
        "store_name": "ALANTE ALANTE DELI GROCERY",
        "street_address": "207",
        "address": "MT HOPE PL",
        "borough": "Bronx",
        "zip_code": "10457",
        "year_awarded": "2017",
        "program_wave": "5",
        "latitude": "40.84833",
        "longitude": "-73.905669",
        "community_board": "5",
        "council_district": "15",
        "census_tract": "23302",
        "bin": "2007592",
        "bbl": "2028040001",
        "nta": "Mount Hope"
    },
    {
        "store_name": "BANESA DELI GROCERY 2",
        "street_address": "2007",
        "address": "ANTHONY AVE",
        "borough": "Bronx",
        "zip_code": "10457",
        "year_awarded": "2017",
        "program_wave": "5",
        "latitude": "40.851468",
        "longitude": "-73.902885",
        "community_board": "5",
        "council_district": "15",
        "census_tract": "23502",
        "bin": "2007758",
        "bbl": "2028130001",
        "nta": "Mount Hope"
    },
    {
        "store_name": "BODEGA BUILT",
        "street_address": "601",
        "address": "EAST 180TH STREET",
        "borough": "Bronx",
        "zip_code": "10457",
        "year_awarded": "2017",
        "program_wave": "5",
        "latitude": "40.849394",
        "longitude": "-73.891375",
        "community_board": "6",
        "council_district": "15",
        "census_tract": "373",
        "bin": "2012024",
        "bbl": "2030700001",
        "nta": "East Tremont"
    },
    {
        "store_name": "CHICKEN DELI GROCERY",
        "street_address": "555",
        "address": "EAST 180TH ST",
        "borough": "Bronx",
        "zip_code": "10457",
        "year_awarded": "2017",
        "program_wave": "5",
        "latitude": "40.850351",
        "longitude": "-73.893326",
        "community_board": "6",
        "council_district": "15",
        "census_tract": "37504",
        "bin": "2011853",
        "bbl": "2030620015",
        "nta": "East Tremont"
    },
    {
        "store_name": "JJN CORP",
        "street_address": "1512",
        "address": "WASHINGTON AVE",
        "borough": "Bronx",
        "zip_code": "10457",
        "year_awarded": "2017",
        "program_wave": "5",
        "latitude": "40.837956",
        "longitude": "-73.90315",
        "community_board": "3",
        "council_district": "16",
        "census_tract": "169",
        "bin": "2009543",
        "bbl": "2029120001",
        "nta": "Claremont-Bathgate"
    },
    {
        "store_name": "LOS PRIMOS DELI GROCERY",
        "street_address": "1798",
        "address": "CROTONA AVE",
        "borough": "Bronx",
        "zip_code": "10457",
        "year_awarded": "2017",
        "program_wave": "5",
        "latitude": "40.842792",
        "longitude": "-73.893526",
        "community_board": "6",
        "council_district": "17",
        "census_tract": "36902",
        "bin": "2009916",
        "bbl": "2029480001",
        "nta": "East Tremont"
    },
    {
        "store_name": "ZAEL DELI & GROCERY",
        "street_address": "2160",
        "address": "TIEBOUT AVE",
        "borough": "Bronx",
        "zip_code": "10457",
        "year_awarded": "2017",
        "program_wave": "5",
        "latitude": "40.854091",
        "longitude": "-73.898554",
        "community_board": "5",
        "council_district": "15",
        "census_tract": "38302",
        "bin": "2013317",
        "bbl": "2031430130",
        "nta": "Fordham South"
    },
    {
        "store_name": "FINE FARE SUPERMARKET",
        "street_address": "708",
        "address": "East TREMONT AVE",
        "borough": "Bronx",
        "zip_code": "10457",
        "year_awarded": "2017",
        "program_wave": "5",
        "latitude": "40.845227",
        "longitude": "-73.890771",
        "community_board": "6",
        "council_district": "17",
        "census_tract": "36901",
        "bin": "2009975",
        "bbl": "2029500054",
        "nta": "East Tremont"
    },
    {
        "store_name": "C & T DELI GROCERY STORE",
        "street_address": "2275",
        "address": "WASHINGTON AVE",
        "borough": "Bronx",
        "zip_code": "10457",
        "year_awarded": "2017",
        "program_wave": "5",
        "latitude": "40.855028",
        "longitude": "-73.893336",
        "community_board": "6",
        "council_district": "15",
        "census_tract": "385",
        "bin": "2011339",
        "bbl": "2030380027",
        "nta": "Claremont-Bathgate"
    },
    {
        "store_name": "C-TOWN",
        "street_address": "309",
        "address": "East BURNSIDE AVE",
        "borough": "Bronx",
        "zip_code": "10457",
        "year_awarded": "2017",
        "program_wave": "5",
        "latitude": "40.850588",
        "longitude": "-73.901133",
        "community_board": "5",
        "council_district": "15",
        "census_tract": "381",
        "bin": "2013524",
        "bbl": "2031490068",
        "nta": "Mount Hope"
    },
    {
        "store_name": "LOS PRIMOS GROCERY",
        "street_address": "1965",
        "address": "WEBSTER AVE",
        "borough": "Bronx",
        "zip_code": "10457",
        "year_awarded": "2017",
        "program_wave": "5",
        "latitude": "40.849462",
        "longitude": "-73.899949",
        "community_board": "5",
        "council_district": "15",
        "census_tract": "379",
        "bin": "2013301",
        "bbl": "2031420094",
        "nta": "Mount Hope"
    },
    {
        "store_name": "269 MINI MARKET & DELI",
        "street_address": "269",
        "address": "East BURNSIDE AVE",
        "borough": "Bronx",
        "zip_code": "10457",
        "year_awarded": "2017",
        "program_wave": "5",
        "latitude": "40.851333",
        "longitude": "-73.902133",
        "community_board": "5",
        "council_district": "15",
        "census_tract": "381",
        "bin": "2013676",
        "bbl": "2031567501",
        "nta": "Mount Hope"
    },
    {
        "store_name": "JR 2121 DELI GROCERY",
        "street_address": "2121",
        "address": "BELMONT AVE",
        "borough": "Bronx",
        "zip_code": "10457",
        "year_awarded": "2017",
        "program_wave": "5",
        "latitude": "40.849172",
        "longitude": "-73.889446",
        "community_board": "6",
        "council_district": "15",
        "census_tract": "373",
        "bin": "2012356",
        "bbl": "2030810013",
        "nta": "East Tremont"
    },
    {
        "store_name": "BBB DELI GROCERY",
        "street_address": "214B",
        "address": "E 180TH ST",
        "borough": "Bronx",
        "zip_code": "10457",
        "year_awarded": "2017",
        "program_wave": "5",
        "latitude": "40.853232",
        "longitude": "-73.901971",
        "community_board": "5",
        "council_district": "15",
        "census_tract": "23502",
        "bin": "2013632",
        "bbl": "2031560018",
        "nta": "Mount Hope"
    },
    {
        "store_name": "DIAZ DELI GROCERY",
        "street_address": "306",
        "address": "E 178TH ST",
        "borough": "Bronx",
        "zip_code": "10457",
        "year_awarded": "2017",
        "program_wave": "5",
        "latitude": "40.849999",
        "longitude": "-73.902497",
        "community_board": "5",
        "council_district": "15",
        "census_tract": "381",
        "bin": "2007766",
        "bbl": "2028140029",
        "nta": "Mount Hope"
    },
    {
        "store_name": "LA ANTILLANA MEAT WAREHOUSE",
        "street_address": "245",
        "address": "East TREMONT AVE",
        "borough": "Bronx",
        "zip_code": "10457",
        "year_awarded": "2017",
        "program_wave": "5",
        "latitude": "40.848922",
        "longitude": "-73.904407",
        "community_board": "5",
        "council_district": "15",
        "census_tract": "23502",
        "bin": "2007717",
        "bbl": "2028090045",
        "nta": "Mount Hope"
    },
    {
        "store_name": "JADE FOOD CENTER",
        "street_address": "3822",
        "address": "3RD AVE",
        "borough": "Bronx",
        "zip_code": "10457",
        "year_awarded": "2017",
        "program_wave": "5",
        "latitude": "40.837875",
        "longitude": "-73.901412",
        "community_board": "3",
        "council_district": "16",
        "census_tract": "169",
        "bin": "2009644",
        "bbl": "2029280012",
        "nta": "Claremont-Bathgate"
    },
    {
        "store_name": "OJ DELI GROCERY",
        "street_address": "230",
        "address": "E 174TH ST",
        "borough": "Bronx",
        "zip_code": "10457",
        "year_awarded": "2017",
        "program_wave": "5",
        "latitude": "40.84472",
        "longitude": "-73.907427",
        "community_board": "4",
        "council_district": "15",
        "census_tract": "22902",
        "bin": "2007368",
        "bbl": "2027920037",
        "nta": "Mount Hope"
    },
    {
        "store_name": "LA BODEGUITA DE ROSAURA",
        "street_address": "160",
        "address": "E 174TH ST",
        "borough": "Bronx",
        "zip_code": "10457",
        "year_awarded": "2017",
        "program_wave": "5",
        "latitude": "40.844817",
        "longitude": "-73.909238",
        "community_board": "4",
        "council_district": "15",
        "census_tract": "22902",
        "bin": "2007398",
        "bbl": "2027940042",
        "nta": "Mount Hope"
    },
    {
        "store_name": "EXPRESS MARKET",
        "street_address": "469",
        "address": "E TREMONT AVE",
        "borough": "Bronx",
        "zip_code": "10457",
        "year_awarded": "2017",
        "program_wave": "5",
        "latitude": "40.847075",
        "longitude": "-73.898247",
        "community_board": "6",
        "council_district": "15",
        "census_tract": "395",
        "bin": "2011246",
        "bbl": "2030340046",
        "nta": "Claremont-Bathgate"
    },
    {
        "store_name": "3 Sisters Deli Grocery",
        "street_address": "269",
        "address": "Dumont Ave",
        "borough": "Brooklyn",
        "zip_code": "11212",
        "year_awarded": "2017",
        "program_wave": "5",
        "latitude": "40.664065",
        "longitude": "-73.909566",
        "community_board": "16",
        "council_district": "41",
        "census_tract": "924",
        "bin": "3081792",
        "bbl": "3035600048",
        "nta": "Brownsville"
    },
    {
        "store_name": "702 Livonia Ave Deli",
        "street_address": "702",
        "address": "Rockaway Ave",
        "borough": "Brooklyn",
        "zip_code": "11212",
        "year_awarded": "2017",
        "program_wave": "5",
        "latitude": "40.662769",
        "longitude": "-73.908984",
        "community_board": "16",
        "council_district": "41",
        "census_tract": "924",
        "bin": "3081941",
        "bbl": "3035750001",
        "nta": "Brownsville"
    },
    {
        "store_name": "Chester Food Market",
        "street_address": "241",
        "address": "Blake Ave",
        "borough": "Brooklyn",
        "zip_code": "11212",
        "year_awarded": "2017",
        "program_wave": "5",
        "latitude": "40.665518",
        "longitude": "-73.910487",
        "community_board": "16",
        "council_district": "41",
        "census_tract": "924",
        "bin": "3081443",
        "bbl": "3035430001",
        "nta": "Brownsville"
    },
    {
        "store_name": "MJT Grocery Store",
        "street_address": "666",
        "address": "Rockaway Ave",
        "borough": "Brooklyn",
        "zip_code": "11212",
        "year_awarded": "2017",
        "program_wave": "5",
        "latitude": "40.663255",
        "longitude": "-73.909106",
        "community_board": "16",
        "council_district": "41",
        "census_tract": "924",
        "bin": "3326506",
        "bbl": "3035750011",
        "nta": "Brownsville"
    },
    {
        "store_name": "Blessings Food Corp.",
        "street_address": "578",
        "address": "Rockaway Ave",
        "borough": "Brooklyn",
        "zip_code": "11212",
        "year_awarded": "2017",
        "program_wave": "5",
        "latitude": "40.665951",
        "longitude": "-73.909795",
        "community_board": "16",
        "council_district": "41",
        "census_tract": "924",
        "bin": "3326651",
        "bbl": "3035430043",
        "nta": "Brownsville"
    },
    {
        "store_name": "Rockaway Deli Food Corp.",
        "street_address": "674",
        "address": "Rockaway Ave",
        "borough": "Brooklyn",
        "zip_code": "11212",
        "year_awarded": "2017",
        "program_wave": "5",
        "latitude": "40.663148",
        "longitude": "-73.909077",
        "community_board": "16",
        "council_district": "41",
        "census_tract": "924",
        "bin": "3326506",
        "bbl": "3035750011",
        "nta": "Brownsville"
    },
    {
        "store_name": "El Especial Deli & Gril",
        "street_address": "774",
        "address": "Rockaway Ave",
        "borough": "Brooklyn",
        "zip_code": "11212",
        "year_awarded": "2017",
        "program_wave": "5",
        "latitude": "40.66071",
        "longitude": "-73.908457",
        "community_board": "16",
        "council_district": "42",
        "census_tract": "916",
        "bin": "3393959",
        "bbl": "3036027501",
        "nta": "Brownsville"
    },
    {
        "store_name": "Friendly Food & Grocery",
        "street_address": "784",
        "address": "Saratoga Ave",
        "borough": "Brooklyn",
        "zip_code": "11212",
        "year_awarded": "2017",
        "program_wave": "5",
        "latitude": "40.661305",
        "longitude": "-73.91542",
        "community_board": "16",
        "council_district": "42",
        "census_tract": "894",
        "bin": "3326659",
        "bbl": "3035820032",
        "nta": "Brownsville"
    },
    {
        "store_name": "Sanaa Express Grocery",
        "street_address": "245",
        "address": "Riverdale Ave",
        "borough": "Brooklyn",
        "zip_code": "11212",
        "year_awarded": "2017",
        "program_wave": "5",
        "latitude": "40.661129",
        "longitude": "-73.907812",
        "community_board": "16",
        "council_district": "42",
        "census_tract": "918",
        "bin": "3082151",
        "bbl": "3035900001",
        "nta": "Brownsville"
    },
    {
        "store_name": "Cherry Valley",
        "street_address": "381",
        "address": "Mother Gaston Blvd",
        "borough": "Brooklyn",
        "zip_code": "11212",
        "year_awarded": "2017",
        "program_wave": "5",
        "latitude": "40.669745",
        "longitude": "-73.906859",
        "community_board": "16",
        "council_district": "41",
        "census_tract": "908",
        "bin": "3083889",
        "bbl": "3037260008",
        "nta": "Brownsville"
    },
    {
        "store_name": "Jamao Grocery",
        "street_address": "174",
        "address": "Blake Ave",
        "borough": "Brooklyn",
        "zip_code": "11212",
        "year_awarded": "2017",
        "program_wave": "5",
        "latitude": "40.665097",
        "longitude": "-73.913206",
        "community_board": "16",
        "council_district": "41",
        "census_tract": "898",
        "bin": "3081748",
        "bbl": "3035570025",
        "nta": "Brownsville"
    },
    {
        "store_name": "Los Primos Grocery",
        "street_address": "57",
        "address": "Sutter Ave",
        "borough": "Brooklyn",
        "zip_code": "11212",
        "year_awarded": "2017",
        "program_wave": "5",
        "latitude": "40.665613",
        "longitude": "-73.920587",
        "community_board": "16",
        "council_district": "41",
        "census_tract": "900",
        "bin": "3080851",
        "bbl": "3035100076",
        "nta": "Brownsville"
    },
    {
        "store_name": "39 Lott Grocery",
        "street_address": "39",
        "address": "Lott",
        "borough": "Brooklyn",
        "zip_code": "11212",
        "year_awarded": "2017",
        "program_wave": "5"
    },
    {
        "store_name": "51 Deli & Grocery NYC",
        "street_address": "51",
        "address": "Hegeman Ave",
        "borough": "Brooklyn",
        "zip_code": "11212",
        "year_awarded": "2017",
        "program_wave": "5",
        "latitude": "40.655828",
        "longitude": "-73.910331",
        "community_board": "16",
        "council_district": "42",
        "census_tract": "896",
        "bin": "3082720",
        "bbl": "3036220001",
        "nta": "Brownsville"
    },
    {
        "store_name": "77 Hegeman Mini Market",
        "street_address": "77",
        "address": "Hegeman Ave",
        "borough": "Brooklyn",
        "zip_code": "11212",
        "year_awarded": "2017",
        "program_wave": "5",
        "latitude": "40.655981",
        "longitude": "-73.909322",
        "community_board": "16",
        "council_district": "42",
        "census_tract": "916",
        "bin": "3082734",
        "bbl": "3036230001",
        "nta": "Brownsville"
    },
    {
        "store_name": "Glen Deli & Grocery",
        "street_address": "55",
        "address": "Hegeman Ave",
        "borough": "Brooklyn",
        "zip_code": "11212",
        "year_awarded": "2017",
        "program_wave": "5",
        "latitude": "40.655883",
        "longitude": "-73.909981",
        "community_board": "16",
        "council_district": "42",
        "census_tract": "916",
        "bin": "3082735",
        "bbl": "3036230008",
        "nta": "Brownsville"
    },
    {
        "store_name": "Associated supermarket",
        "street_address": "103",
        "address": "Hegeman Ave",
        "borough": "Brooklyn",
        "zip_code": "11212",
        "year_awarded": "2017",
        "program_wave": "5",
        "latitude": "40.656153",
        "longitude": "-73.908172",
        "community_board": "16",
        "council_district": "42",
        "census_tract": "916",
        "bin": "3082814",
        "bbl": "3036250004",
        "nta": "Brownsville"
    },
    {
        "store_name": "Hidayat Deli Grocery",
        "street_address": "1111",
        "address": "Rutland Rd",
        "borough": "Brooklyn",
        "zip_code": "11212",
        "year_awarded": "2017",
        "program_wave": "5",
        "latitude": "40.664805",
        "longitude": "-73.923119",
        "community_board": "17",
        "council_district": "41",
        "census_tract": "892",
        "bin": "3099558",
        "bbl": "3046000038",
        "nta": "Brownsville"
    },
    {
        "store_name": "T&L Deli & Grocery",
        "street_address": "1067",
        "address": "Rutland Rd",
        "borough": "Brooklyn",
        "zip_code": "11212",
        "year_awarded": "2017",
        "program_wave": "5",
        "latitude": "40.663944",
        "longitude": "-73.924439",
        "community_board": "17",
        "council_district": "41",
        "census_tract": "892",
        "bin": "3099544",
        "bbl": "3045990043",
        "nta": "Brownsville"
    },
    {
        "store_name": "Bravo Supermarket",
        "street_address": "80",
        "address": "East 93Rd St",
        "borough": "Brooklyn",
        "zip_code": "11212",
        "year_awarded": "2017",
        "program_wave": "5",
        "latitude": "40.662455",
        "longitude": "-73.926964",
        "community_board": "17",
        "council_district": "41",
        "census_tract": "882",
        "bin": "3346866",
        "bbl": "3045950215",
        "nta": "Rugby-Remsen Village"
    },
    {
        "store_name": "Associated Supermarket",
        "street_address": "190",
        "address": "East 98th St",
        "borough": "Brooklyn",
        "zip_code": "11212",
        "year_awarded": "2017",
        "program_wave": "5",
        "latitude": "40.66264",
        "longitude": "-73.92032",
        "community_board": "17",
        "council_district": "41",
        "census_tract": "892",
        "bin": "3100736",
        "bbl": "3046330013",
        "nta": "Brownsville"
    },
    {
        "store_name": "Boston MiniMarket",
        "street_address": "9424",
        "address": "Kings Highway",
        "borough": "Brooklyn",
        "zip_code": "11212",
        "year_awarded": "2017",
        "program_wave": "5",
        "latitude": "40.658474",
        "longitude": "-73.920581",
        "community_board": "17",
        "council_district": "41",
        "census_tract": "886",
        "bin": "3101192",
        "bbl": "3046490040",
        "nta": "Rugby-Remsen Village"
    },
    {
        "store_name": "Clarkson Food",
        "street_address": "1125",
        "address": "Clarkson Ave",
        "borough": "Brooklyn",
        "zip_code": "11212",
        "year_awarded": "2017",
        "program_wave": "5",
        "latitude": "40.660467",
        "longitude": "-73.92113",
        "community_board": "17",
        "council_district": "41",
        "census_tract": "884",
        "bin": "3100676",
        "bbl": "3046310038",
        "nta": "Rugby-Remsen Village"
    },
    {
        "store_name": "New Way Supermarket",
        "street_address": "1167",
        "address": "Lenox Rd",
        "borough": "Brooklyn",
        "zip_code": "11212",
        "year_awarded": "2017",
        "program_wave": "5",
        "latitude": "40.659951",
        "longitude": "-73.917592",
        "community_board": "17",
        "council_district": "41",
        "census_tract": "890",
        "bin": "3101284",
        "bbl": "3046520039",
        "nta": "Rugby-Remsen Village"
    },
    {
        "store_name": "Star Two Deli",
        "street_address": "994",
        "address": "Winthrop St",
        "borough": "Brooklyn",
        "zip_code": "11212",
        "year_awarded": "2017",
        "program_wave": "5",
        "latitude": "40.659738",
        "longitude": "-73.926577",
        "community_board": "17",
        "council_district": "41",
        "census_tract": "866",
        "bin": "3100381",
        "bbl": "3046260006",
        "nta": "Rugby-Remsen Village"
    },
    {
        "store_name": "Ameer Food Market",
        "street_address": "9527",
        "address": "Church Ave",
        "borough": "Brooklyn",
        "zip_code": "11212",
        "year_awarded": "2017",
        "program_wave": "5",
        "latitude": "40.655331",
        "longitude": "-73.916044",
        "community_board": "17",
        "council_district": "42",
        "census_tract": "890",
        "bin": "3102640",
        "bbl": "3046920044",
        "nta": "Rugby-Remsen Village"
    },
    {
        "store_name": "El Flaco Food",
        "street_address": "1093",
        "address": "Linden Blvd",
        "borough": "Brooklyn",
        "zip_code": "11212",
        "year_awarded": "2017",
        "program_wave": "5",
        "latitude": "40.654327",
        "longitude": "-73.917775",
        "community_board": "17",
        "council_district": "42",
        "census_tract": "888",
        "bin": "3102539",
        "bbl": "3046900010",
        "nta": "Rugby-Remsen Village"
    },
    {
        "store_name": "La Linda Deli Grocery",
        "street_address": "1157",
        "address": "Willmohr St",
        "borough": "Brooklyn",
        "zip_code": "11212",
        "year_awarded": "2017",
        "program_wave": "5",
        "latitude": "40.658163",
        "longitude": "-73.915979",
        "community_board": "17",
        "council_district": "41",
        "census_tract": "890",
        "bin": "3101976",
        "bbl": "3046720034",
        "nta": "Rugby-Remsen Village"
    },
    {
        "store_name": "9323 Linden Deli Food",
        "street_address": "9323",
        "address": "Church Ave",
        "borough": "Brooklyn",
        "zip_code": "11212",
        "year_awarded": "2017",
        "program_wave": "5",
        "latitude": "40.654538",
        "longitude": "-73.917263",
        "community_board": "17",
        "council_district": "42",
        "census_tract": "888",
        "bin": "3102536",
        "bbl": "3046900001",
        "nta": "Rugby-Remsen Village"
    },
    {
        "store_name": "420 Royal Deli",
        "street_address": "420B",
        "address": "Mother Gaston Blvd",
        "borough": "Brooklyn",
        "zip_code": "11212",
        "year_awarded": "2017",
        "program_wave": "5",
        "latitude": "40.668668",
        "longitude": "-73.906604",
        "community_board": "16",
        "council_district": "41",
        "census_tract": "906",
        "nta": "Brownsville"
    },
    {
        "store_name": "Leonardo Deli Grocery",
        "street_address": "441",
        "address": "Mother Gaston Blvd",
        "borough": "Brooklyn",
        "zip_code": "11212",
        "year_awarded": "2017",
        "program_wave": "5",
        "latitude": "40.668248",
        "longitude": "-73.906479",
        "community_board": "16",
        "council_district": "41",
        "census_tract": "908",
        "bin": "3084005",
        "bbl": "3037430007",
        "nta": "Brownsville"
    },
    {
        "store_name": "C-Town",
        "street_address": "29",
        "address": "Belmont Ave",
        "borough": "Brooklyn",
        "zip_code": "11212",
        "year_awarded": "2017",
        "program_wave": "5",
        "latitude": "40.668607",
        "longitude": "-73.909221",
        "community_board": "16",
        "council_district": "41",
        "census_tract": "906",
        "bin": "3081095",
        "bbl": "3035230037",
        "nta": "Brownsville"
    },
    {
        "store_name": "Moreno Mini Market",
        "street_address": "113",
        "address": "Belmont Ave",
        "borough": "Brooklyn",
        "zip_code": "11212",
        "year_awarded": "2017",
        "program_wave": "5",
        "latitude": "40.669077",
        "longitude": "-73.906038",
        "community_board": "16",
        "council_district": "41",
        "census_tract": "908",
        "bin": "3083894",
        "bbl": "3037260034",
        "nta": "Brownsville"
    },
    {
        "store_name": "Bridge Deli & Grocery",
        "street_address": "1861",
        "address": "Pitkin Ave",
        "borough": "Brooklyn",
        "zip_code": "11212",
        "year_awarded": "2017",
        "program_wave": "5",
        "latitude": "40.670686",
        "longitude": "-73.904064",
        "community_board": "16",
        "council_district": "37",
        "census_tract": "908",
        "bin": "3083747",
        "bbl": "3037120001",
        "nta": "Brownsville"
    },
    {
        "store_name": "Eye Deli & Grocery",
        "street_address": "1540",
        "address": "East New York Ave",
        "borough": "Brooklyn",
        "zip_code": "11212",
        "year_awarded": "2017",
        "program_wave": "5",
        "latitude": "40.672108",
        "longitude": "-73.911243",
        "community_board": "16",
        "council_district": "41",
        "census_tract": "906",
        "bin": "3329485",
        "bbl": "3034890120",
        "nta": "Brownsville"
    },
    {
        "store_name": "Family Express Deli & Grocery",
        "street_address": "112",
        "address": "Watkins St",
        "borough": "Brooklyn",
        "zip_code": "11212",
        "year_awarded": "2017",
        "program_wave": "5",
        "latitude": "40.670289",
        "longitude": "-73.90803",
        "community_board": "16",
        "council_district": "41",
        "census_tract": "906",
        "bin": "3338510",
        "bbl": "3034890250",
        "nta": "Brownsville"
    },
    {
        "store_name": "Golden Deli",
        "street_address": "1569",
        "address": "E New York Ave",
        "borough": "Brooklyn",
        "zip_code": "11212",
        "year_awarded": "2017",
        "program_wave": "5",
        "latitude": "40.672599",
        "longitude": "-73.910121",
        "community_board": "16",
        "council_district": "41",
        "census_tract": "363",
        "bin": "3039273",
        "bbl": "3014610027",
        "nta": "Ocean Hill"
    },
    {
        "store_name": "New Friends Gourmet Deli",
        "street_address": "1788",
        "address": "Pitkin Ave",
        "borough": "Brooklyn",
        "zip_code": "11212",
        "year_awarded": "2017",
        "program_wave": "5",
        "latitude": "40.670222",
        "longitude": "-73.907074",
        "community_board": "16",
        "council_district": "41",
        "census_tract": "906",
        "bin": "3397503",
        "bbl": "3035250017",
        "nta": "Brownsville"
    },
    {
        "store_name": "Yoha Mini Market",
        "street_address": "78",
        "address": "Thatford Ave",
        "borough": "Brooklyn",
        "zip_code": "11212",
        "year_awarded": "2017",
        "program_wave": "5",
        "latitude": "40.670019",
        "longitude": "-73.909865",
        "community_board": "16",
        "council_district": "41",
        "census_tract": "906",
        "bin": "3326574",
        "bbl": "3034890228",
        "nta": "Brownsville"
    },
    {
        "store_name": "Pitikin Ave Deli & Grocery",
        "street_address": "1801",
        "address": "Pitkin Ave",
        "borough": "Brooklyn",
        "zip_code": "11212",
        "year_awarded": "2017",
        "program_wave": "5",
        "latitude": "40.670326",
        "longitude": "-73.906487",
        "community_board": "16",
        "council_district": "37",
        "census_tract": "908",
        "bin": "3083739",
        "bbl": "3037090032",
        "nta": "Brownsville"
    },
    {
        "store_name": "Ideal Food Basket",
        "street_address": "1488",
        "address": "Pitkin Ave",
        "borough": "Brooklyn",
        "zip_code": "11212",
        "year_awarded": "2017",
        "program_wave": "5",
        "latitude": "40.668494",
        "longitude": "-73.91872",
        "community_board": "16",
        "council_district": "41",
        "census_tract": "900",
        "bin": "3080901",
        "bbl": "3035130033",
        "nta": "Brownsville"
    },
    {
        "store_name": "Caba Deli Grocery",
        "street_address": "1419",
        "address": "E New York Ave",
        "borough": "Brooklyn",
        "zip_code": "11212",
        "year_awarded": "2017",
        "program_wave": "5",
        "latitude": "40.67024",
        "longitude": "-73.915567",
        "community_board": "16",
        "council_district": "41",
        "census_tract": "361",
        "bin": "3039487",
        "bbl": "3014720025",
        "nta": "Ocean Hill"
    },
    {
        "store_name": "El Cibao",
        "street_address": "38",
        "address": "Herzl St",
        "borough": "Brooklyn",
        "zip_code": "11212",
        "year_awarded": "2017",
        "program_wave": "5",
        "latitude": "40.669062",
        "longitude": "-73.915457",
        "community_board": "16",
        "council_district": "41",
        "census_tract": "902",
        "bin": "3326460",
        "bbl": "3034940028",
        "nta": "Brownsville"
    },
    {
        "store_name": "Shop Fair Supermarket",
        "street_address": "256",
        "address": "Livonia Ave",
        "borough": "Brooklyn",
        "zip_code": "11212",
        "year_awarded": "2017",
        "program_wave": "5",
        "latitude": "40.662618",
        "longitude": "-73.908433",
        "community_board": "16",
        "council_district": "42",
        "census_tract": "918",
        "bin": "3082153",
        "bbl": "3035900016",
        "nta": "Brownsville"
    },
    {
        "store_name": "Food Bazaar",
        "street_address": "417",
        "address": "Junius St",
        "borough": "Brooklyn",
        "zip_code": "11212",
        "year_awarded": "2017",
        "program_wave": "5",
        "latitude": "40.664415",
        "longitude": "-73.901629",
        "community_board": "16",
        "council_district": "42",
        "census_tract": "910",
        "bin": "3084597",
        "bbl": "3037980025",
        "nta": "Brownsville"
    },
    {
        "store_name": "Pioneer Supermarket",
        "street_address": "455",
        "address": "Sutter Ave",
        "borough": "Brooklyn",
        "zip_code": "11212",
        "year_awarded": "2017",
        "program_wave": "5",
        "latitude": "40.668324",
        "longitude": "-73.90233",
        "community_board": "16",
        "council_district": "42",
        "census_tract": "908",
        "bin": "3394366",
        "bbl": "3037470001",
        "nta": "Brownsville"
    },
    {
        "store_name": "Airon Food Market",
        "street_address": "44",
        "address": "New Lots Ave",
        "borough": "Brooklyn",
        "zip_code": "11212",
        "year_awarded": "2017",
        "program_wave": "5",
        "latitude": "40.657215",
        "longitude": "-73.903452",
        "community_board": "16",
        "council_district": "42",
        "census_tract": "920",
        "bin": "3085891",
        "bbl": "3038600001",
        "nta": "Brownsville"
    },
    {
        "store_name": "Giselle Mini Market",
        "street_address": "1697",
        "address": "E New York Ave",
        "borough": "Brooklyn",
        "zip_code": "11212",
        "year_awarded": "2017",
        "program_wave": "5",
        "latitude": "40.674615",
        "longitude": "-73.905514",
        "community_board": "16",
        "council_district": "37",
        "census_tract": "36502",
        "bin": "3038833",
        "bbl": "3014440041",
        "nta": "Ocean Hill"
    },
    {
        "store_name": "Powell Supermarket",
        "street_address": "323",
        "address": "Powell St",
        "borough": "Brooklyn",
        "zip_code": "11212",
        "year_awarded": "2017",
        "program_wave": "5",
        "latitude": "40.666434",
        "longitude": "-73.90314",
        "community_board": "16",
        "council_district": "42",
        "census_tract": "910",
        "bin": "3084420",
        "bbl": "3037800020",
        "nta": "Brownsville"
    },
    {
        "store_name": "Green Village Meat Farm",
        "street_address": "229",
        "address": "Tapscott St",
        "borough": "Brooklyn",
        "zip_code": "11212",
        "year_awarded": "2017",
        "program_wave": "5",
        "latitude": "40.662211",
        "longitude": "-73.919589",
        "community_board": "16",
        "council_district": "41",
        "census_tract": "892",
        "bin": "3394445",
        "bbl": "3035650015",
        "nta": "Brownsville"
    },
    {
        "store_name": "Anabelle Deli Grocery",
        "street_address": "2121",
        "address": "2nd Ave",
        "borough": "New York",
        "zip_code": "10029",
        "year_awarded": "2017",
        "program_wave": "5",
        "latitude": "40.792729",
        "longitude": "-73.940913",
        "community_board": "11",
        "council_district": "8",
        "census_tract": "180",
        "bin": "1052437",
        "bbl": "1016590021",
        "nta": "East Harlem North"
    },
    {
        "store_name": "Cherry Gourmet Deli",
        "street_address": "1575",
        "address": "Lexington Ave",
        "borough": "New York",
        "zip_code": "10029",
        "year_awarded": "2017",
        "program_wave": "5",
        "latitude": "40.78874",
        "longitude": "-73.948825",
        "community_board": "11",
        "council_district": "8",
        "census_tract": "166",
        "bin": "1051813",
        "bbl": "1016280050",
        "nta": "East Harlem South"
    },
    {
        "store_name": "Cherry Valley Supermarket",
        "street_address": "1968",
        "address": "2nd Ave",
        "borough": "New York",
        "zip_code": "10029",
        "year_awarded": "2017",
        "program_wave": "5",
        "latitude": "40.787585",
        "longitude": "-73.944655",
        "community_board": "11",
        "council_district": "8",
        "census_tract": "164",
        "bin": "1081358",
        "bbl": "1016730001",
        "nta": "East Harlem South"
    },
    {
        "store_name": "Dave\u2019s Gourmet",
        "street_address": "1944",
        "address": "1st Ave",
        "borough": "New York",
        "zip_code": "10029",
        "year_awarded": "2017",
        "program_wave": "5",
        "latitude": "40.786124",
        "longitude": "-73.942594",
        "community_board": "11",
        "council_district": "8",
        "census_tract": "162",
        "bin": "1083932",
        "bbl": "1016940007",
        "nta": "East Harlem South"
    },
    {
        "store_name": "Family 1st Deli",
        "street_address": "2105",
        "address": "1st Ave",
        "borough": "New York",
        "zip_code": "10029",
        "year_awarded": "2017",
        "program_wave": "5",
        "latitude": "40.791007",
        "longitude": "-73.939069",
        "community_board": "11",
        "council_district": "8",
        "census_tract": "170",
        "bin": "1052807",
        "bbl": "1016800023",
        "nta": "East Harlem South"
    },
    {
        "store_name": "Gold Deli",
        "street_address": "126",
        "address": "E 103rd St.",
        "borough": "New York",
        "zip_code": "10029",
        "year_awarded": "2017",
        "program_wave": "5",
        "latitude": "40.790581",
        "longitude": "-73.948343",
        "community_board": "11",
        "council_district": "8",
        "census_tract": "166",
        "bin": "1051901",
        "bbl": "1016300061",
        "nta": "East Harlem South"
    },
    {
        "store_name": "L&O Deli Grocery",
        "street_address": "1618",
        "address": "Madison Ave",
        "borough": "New York",
        "zip_code": "10029",
        "year_awarded": "2017",
        "program_wave": "5",
        "latitude": "40.795008",
        "longitude": "-73.948495",
        "community_board": "11",
        "council_district": "9",
        "census_tract": "17401",
        "bin": "1051581",
        "bbl": "1016140014",
        "nta": "East Harlem South"
    },
    {
        "store_name": "La Constenita Grocery",
        "street_address": "2175",
        "address": "2nd Ave",
        "borough": "New York",
        "zip_code": "10029",
        "year_awarded": "2017",
        "program_wave": "5",
        "latitude": "40.794249",
        "longitude": "-73.939799",
        "community_board": "11",
        "council_district": "8",
        "census_tract": "180",
        "bin": "1052504",
        "bbl": "1016610027",
        "nta": "East Harlem North"
    },
    {
        "store_name": "Luna Food Market",
        "street_address": "2121",
        "address": "1st Ave",
        "borough": "New York",
        "zip_code": "10029",
        "year_awarded": "2017",
        "program_wave": "5",
        "latitude": "40.791658",
        "longitude": "-73.938591",
        "community_board": "11",
        "council_district": "8",
        "census_tract": "180",
        "bin": "1052837",
        "bbl": "1016810023",
        "nta": "East Harlem North"
    },
    {
        "store_name": "Lucky Corner Deli & Pro",
        "street_address": "2137",
        "address": "2nd Ave",
        "borough": "New York",
        "zip_code": "10029",
        "year_awarded": "2017",
        "program_wave": "5",
        "latitude": "40.793056",
        "longitude": "-73.94067",
        "community_board": "11",
        "council_district": "8",
        "census_tract": "180",
        "bin": "1052444",
        "bbl": "1016590028",
        "nta": "East Harlem North"
    },
    {
        "store_name": "Mr. Moe\u2019s Deli",
        "street_address": "2001",
        "address": "3rd Ave",
        "borough": "New York",
        "zip_code": "10029",
        "year_awarded": "2017",
        "program_wave": "5",
        "latitude": "40.793985",
        "longitude": "-73.942905",
        "community_board": "11",
        "council_district": "8",
        "census_tract": "180",
        "bin": "1052445",
        "bbl": "1016590045",
        "nta": "East Harlem North"
    },
    {
        "store_name": ".NYC Fresh Market",
        "street_address": "1660",
        "address": "Madison Ave",
        "borough": "New York",
        "zip_code": "10029",
        "year_awarded": "2017",
        "program_wave": "5",
        "latitude": "40.796457",
        "longitude": "-73.947439",
        "community_board": "11",
        "council_district": "9",
        "census_tract": "17402",
        "bin": "1085254",
        "bbl": "1016160001",
        "nta": "East Harlem South"
    },
    {
        "store_name": "Puchito Grocery",
        "street_address": "2122",
        "address": "2nd Ave",
        "borough": "New York",
        "zip_code": "10029",
        "year_awarded": "2017",
        "program_wave": "5",
        "latitude": "40.792642",
        "longitude": "-73.940956",
        "community_board": "11",
        "council_district": "8",
        "census_tract": "180",
        "bin": "1052825",
        "bbl": "1016810001",
        "nta": "East Harlem North"
    },
    {
        "store_name": "Raspberry Deli",
        "street_address": "2127",
        "address": "2nd Ave",
        "borough": "New York",
        "zip_code": "10029",
        "year_awarded": "2017",
        "program_wave": "5",
        "latitude": "40.792853",
        "longitude": "-73.940822",
        "community_board": "11",
        "council_district": "8",
        "census_tract": "180",
        "bin": "1052439",
        "bbl": "1016590023",
        "nta": "East Harlem North"
    },
    {
        "store_name": "East Harlem Grocery",
        "street_address": "85 E",
        "address": "110th St.",
        "borough": "New York",
        "zip_code": "10029",
        "year_awarded": "2017",
        "program_wave": "5",
        "latitude": "40.795771",
        "longitude": "-73.946725",
        "community_board": "11",
        "council_district": "8",
        "census_tract": "17402",
        "bin": "1051617",
        "bbl": "1016160035",
        "nta": "East Harlem South"
    },
    {
        "store_name": "Sun & Moon Deli",
        "street_address": "142",
        "address": "E 112th St.",
        "borough": "New York",
        "zip_code": "10029",
        "year_awarded": "2017",
        "program_wave": "5",
        "latitude": "40.796145",
        "longitude": "-73.943676",
        "community_board": "11",
        "council_district": "8",
        "census_tract": "172",
        "bin": "1087212",
        "bbl": "1016390057",
        "nta": "East Harlem South"
    },
    {
        "store_name": "Garden Gourmet",
        "street_address": "2019",
        "address": "1st Ave",
        "borough": "New York",
        "zip_code": "10029",
        "year_awarded": "2017",
        "program_wave": "5",
        "latitude": "40.788417",
        "longitude": "-73.94096",
        "community_board": "11",
        "council_district": "8",
        "census_tract": "170",
        "bin": "1087780",
        "bbl": "1016767504",
        "nta": "East Harlem South"
    },
    {
        "store_name": "2037 Meat & Grocery",
        "street_address": "2037",
        "address": "2nd Ave",
        "borough": "New York",
        "zip_code": "10029",
        "year_awarded": "2017",
        "program_wave": "5",
        "latitude": "40.789717",
        "longitude": "-73.943111",
        "community_board": "11",
        "council_district": "8",
        "census_tract": "170",
        "bin": "1052391",
        "bbl": "1016540027",
        "nta": "East Harlem South"
    },
    {
        "store_name": "Oxford 2 Deli Grocery",
        "street_address": "2024",
        "address": "2nd Ave",
        "borough": "New York",
        "zip_code": "10029",
        "year_awarded": "2017",
        "program_wave": "5",
        "latitude": "40.789379",
        "longitude": "-73.943332",
        "community_board": "11",
        "council_district": "8",
        "census_tract": "170",
        "bin": "1052702",
        "bbl": "1016760001",
        "nta": "East Harlem South"
    },
    {
        "store_name": "Fine Fare Supermarket",
        "street_address": "1891",
        "address": "3rd Ave",
        "borough": "New York",
        "zip_code": "10029",
        "year_awarded": "2017",
        "program_wave": "5",
        "latitude": "40.790544",
        "longitude": "-73.94541100000001",
        "community_board": "11",
        "council_district": "8",
        "census_tract": "170",
        "bin": "1052399",
        "bbl": "1016540045",
        "nta": "East Harlem South"
    },
    {
        "store_name": "Asunan Inc.",
        "street_address": "1665",
        "address": "Lexington Ave",
        "borough": "New York",
        "zip_code": "10029",
        "year_awarded": "2017",
        "program_wave": "5",
        "latitude": "40.79131",
        "longitude": "-73.946949",
        "community_board": "11",
        "council_district": "8",
        "census_tract": "166",
        "bin": "1051980",
        "bbl": "1016320053",
        "nta": "East Harlem South"
    },
    {
        "store_name": "1705 Deli Grocery",
        "street_address": "1705",
        "address": "Lexington Ave",
        "borough": "New York",
        "zip_code": "10029",
        "year_awarded": "2017",
        "program_wave": "5",
        "latitude": "40.792765",
        "longitude": "-73.945886",
        "community_board": "11",
        "council_district": "8",
        "census_tract": "172",
        "bin": "1052050",
        "bbl": "1016340049",
        "nta": "East Harlem South"
    },
    {
        "store_name": "Lex & 103rd Inc.",
        "street_address": "1629",
        "address": "Lexington Ave",
        "borough": "New York",
        "zip_code": "10029",
        "year_awarded": "2017",
        "program_wave": "5",
        "latitude": "40.790216",
        "longitude": "-73.947744",
        "community_board": "11",
        "council_district": "8",
        "census_tract": "166",
        "bin": "1051897",
        "bbl": "1016300053",
        "nta": "East Harlem South"
    },
    {
        "store_name": "Ranch Market",
        "street_address": "1635",
        "address": "Lexington Ave",
        "borough": "New York",
        "zip_code": "10029",
        "year_awarded": "2017",
        "program_wave": "5",
        "latitude": "40.790501",
        "longitude": "-73.947538",
        "community_board": "11",
        "council_district": "8",
        "census_tract": "166",
        "bin": "1089312",
        "bbl": "1016317501",
        "nta": "East Harlem South"
    },
    {
        "store_name": "Uptown Supermarket",
        "street_address": "1588",
        "address": "Madison Ave",
        "borough": "New York",
        "zip_code": "10029",
        "year_awarded": "2017",
        "program_wave": "5",
        "latitude": "40.793982",
        "longitude": "-73.949243",
        "community_board": "11",
        "council_district": "9",
        "census_tract": "17401",
        "bin": "1051514",
        "bbl": "1016120001",
        "nta": "East Harlem South"
    },
    {
        "store_name": "El Tepeyac",
        "street_address": "1621",
        "address": "Lexington Ave",
        "borough": "New York",
        "zip_code": "10029",
        "year_awarded": "2017",
        "program_wave": "5",
        "latitude": "40.789922",
        "longitude": "-73.947961",
        "community_board": "11",
        "council_district": "8",
        "census_tract": "166",
        "bin": "1051884",
        "bbl": "1016300021",
        "nta": "East Harlem South"
    },
    {
        "store_name": "Super Fi Emporium",
        "street_address": "1635",
        "address": "Lexington Ave",
        "borough": "New York",
        "zip_code": "10029",
        "year_awarded": "2017",
        "program_wave": "5",
        "latitude": "40.790501",
        "longitude": "-73.947538",
        "community_board": "11",
        "council_district": "8",
        "census_tract": "166",
        "bin": "1089312",
        "bbl": "1016317501",
        "nta": "East Harlem South"
    },
    {
        "store_name": "Manhattan Haat Baazar",
        "street_address": "165",
        "address": "East 106th St.",
        "borough": "New York",
        "zip_code": "10029",
        "year_awarded": "2017",
        "program_wave": "5",
        "latitude": "40.791966",
        "longitude": "-73.945594",
        "community_board": "11",
        "council_district": "8",
        "census_tract": "172",
        "bin": "1052032",
        "bbl": "1016340031",
        "nta": "East Harlem South"
    },
    {
        "store_name": "Cappellan Deli Grocery",
        "street_address": "1626",
        "address": "Park Ave",
        "borough": "New York",
        "zip_code": "10029",
        "year_awarded": "2017",
        "program_wave": "5",
        "latitude": "40.798843",
        "longitude": "-73.943587",
        "community_board": "11",
        "council_district": "8",
        "census_tract": "184",
        "bin": "1051645",
        "bbl": "1016210035",
        "nta": "East Harlem North"
    },
    {
        "store_name": "Third Avenue Gourmet",
        "street_address": "2105",
        "address": "Third Ave",
        "borough": "New York",
        "zip_code": "10029",
        "year_awarded": "2017",
        "program_wave": "5",
        "latitude": "40.797447",
        "longitude": "-73.94037",
        "community_board": "11",
        "council_district": "8",
        "census_tract": "188",
        "bin": "1052515",
        "bbl": "1016650001",
        "nta": "East Harlem North"
    },
    {
        "store_name": "Cherry Valley Supermarket",
        "street_address": "309",
        "address": "East 115th St.",
        "borough": "New York",
        "zip_code": "10029",
        "year_awarded": "2017",
        "program_wave": "5",
        "latitude": "40.796167",
        "longitude": "-73.937941",
        "community_board": "11",
        "council_district": "8",
        "census_tract": "188",
        "bin": "1052901",
        "bbl": "1016870005",
        "nta": "East Harlem North"
    },
    {
        "store_name": "El Barrio Superette",
        "street_address": "1858",
        "address": "Lexington Ave",
        "borough": "New York",
        "zip_code": "10029",
        "year_awarded": "2017",
        "program_wave": "5",
        "latitude": "40.798118",
        "longitude": "-73.942006",
        "community_board": "11",
        "council_district": "8",
        "census_tract": "182",
        "bin": "1052235",
        "bbl": "1016430015",
        "nta": "East Harlem North"
    },
    {
        "store_name": "New King Deli Grocery Corp.",
        "street_address": "23",
        "address": "East 115th St.",
        "borough": "New York",
        "zip_code": "10029",
        "year_awarded": "2017",
        "program_wave": "5",
        "latitude": "40.799415",
        "longitude": "-73.945645",
        "community_board": "11",
        "council_district": "9",
        "census_tract": "184",
        "bin": "1074184",
        "bbl": "1016210013",
        "nta": "East Harlem North"
    },
    {
        "store_name": "Little Mexico Meat Grocery",
        "street_address": "2119",
        "address": "Third Ave",
        "borough": "New York",
        "zip_code": "10029",
        "year_awarded": "2017",
        "program_wave": "5",
        "latitude": "40.797752",
        "longitude": "-73.94015",
        "community_board": "11",
        "council_district": "8",
        "census_tract": "188",
        "bin": "1052552",
        "bbl": "1016650050",
        "nta": "East Harlem North"
    },
    {
        "store_name": "Paniagua Deli Grocery",
        "street_address": "203",
        "address": "East 115th St.",
        "borough": "New York",
        "zip_code": "10029",
        "year_awarded": "2017",
        "program_wave": "5",
        "latitude": "40.797233",
        "longitude": "-73.940432",
        "community_board": "11",
        "council_district": "8",
        "census_tract": "188",
        "bin": "1052555",
        "bbl": "1016650104",
        "nta": "East Harlem North"
    },
    {
        "store_name": "JJ Food Market",
        "street_address": "153",
        "address": "East 99th St.",
        "borough": "New York",
        "zip_code": "10029",
        "year_awarded": "2017",
        "program_wave": "5",
        "latitude": "40.787686",
        "longitude": "-73.94923",
        "community_board": "11",
        "council_district": "5",
        "census_tract": "166",
        "bin": "1051758",
        "bbl": "1016270023",
        "nta": "East Harlem South"
    }
]